Name,Address,Lat,Lon,Zip Code,Phone #
A G Ferrari Foods,050 El Camino Real Belmont,37.5295731,-122.287858,94002,(650) 632-1655
A G Ferrari Foods,68 Castro St San Francisco,37.7631776,-122.4352475,94114,(415) 255-6590
A G Ferrari Foods,00 Hamilton Ave Palo Alto,37.4446824,-122.1607734,94301,(650) 752-0900
A G Ferrari Foods,905 College Ave Berkeley,37.8537072,-122.2527291,94705,(510) 849-2701
AG Ferrari Foods,04 W El Camino Real Sunnyvale,37.3740777,-122.0571094,94087,(408) 524-4000
AG Ferrari Foods,490 California St San Francisco,37.7859709,-122.4569759,94118,(415) 923-4470
AG Ferrari Foods,3 Lafayette Cir Lafayette,37.89002,-122.12097332606237,94549,(925) 299-8040
AG Ferrari Foods,4234 Catalina St San Leandro,37.6962082,-122.1725308,94577,(510) 357-5441
AG Ferrari Foods,07 Corte Madera Town Ctr Corte Madera,37.9257907,-122.5175625,94925,(415) 927-4347
Albertsons,os Angeles,41.500385949999995,-0.0396435152219068,90001,(888) 746-7252
Albertsons,901 Crenshaw Blvd Los Angeles,34.0105031,-118.3351155,90008,(323) 295-1919
Albertsons,480 S La Brea Ave Los Angeles,34.072995500000005,-118.34404041381109,90016,(323) 299-2649
Albertsons,985 Venice Blvd Los Angeles,34.0307284,-118.3859604,90034,(909) 889-6270
Albertsons,443 S Sepulveda Blvd Los Angeles,33.9725752,-118.3947755,90034,(910) 692-7029
Albertsons,750 Mesmer Ave Culver City,33.9833767,-118.3985008,90230,(912) 261-4730
Albertsons,320 Firestone Blvd Downey,33.9363205,-118.1256947,90241,(562) 862-7513
Albertsons,735 W Artesia Blvd Gardena,33.8728192,-118.2991388,90248,(910) 692-3048
Albertsons,4401 Inglewood Ave Hawthorne,33.9176942,-118.3612402,90250,(916) 744-1510
Albertsons,2630 Hawthorne Blvd Hawthorne,33.929125,-118.352481,90250,(916) 781-5424
Albertsons,15 Pacific Coast Hwy Hermosa Beach,33.8626324,-118.3924076,90254,(910) 628-5803
Albertsons,115 Artesia Blvd Redondo Beach,33.872809,-118.3613737,90278,(914) 376-5429
Albertsons,105 Wilshire Blvd Santa Monica,34.0264124,-118.4893354,90403,(256) 721-0739
Albertsons,627 Lincoln Blvd Santa Monica,34.0050621,-118.4738435,90405,(912) 383-4377
Albertsons,1035 Hawthorne Blvd Torrance,33.8432398,-118.3538268,90503,(516) 845-1044
Albertsons,3003 Whittier Blvd Whittier,33.9637804,-118.0337343,90602,(562) 696-5025
Albertsons,880 Valley View St Buena Park,33.8342291,-118.028489,90620,(714) 236-8200
Albertsons,931 La Palma Ave Buena Park,33.8466693,-117.9958883,90620,(714) 522-1054
Albertsons,060 Dale St Buena Park,33.8632097,-117.9850399,90620,(714) 828-5550
Albertsons,800 W Whittier Blvd La Habra,33.939028,-117.955004,90631,(562) 697-6442
Albertsons,5200 Rosecrans Ave La Mirada,33.9025292,-118.026978,90638,(714) 521-2310
Albertsons,16 Wilber Pl Montebello,34.0123405,-118.0974148,90640,(323) 278-0128
Albertsons,469 Via Campo Montebello,34.0327916,-118.1245494,90640,(323) 888-2250
Albertsons,636 W 25th St San Pedro,33.7215819,-118.3038917,90732,(919) 489-9887
Albertsons,2451 Seal Beach Blvd Seal Beach,33.758366400036216,-118.08115380067609,90740,(562) 431-2113
Albertsons,222 N Avalon Blvd Wilmington,33.771673285714286,-118.26168132653062,90744,(919) 676-3534
Albertsons,00 E Sepulveda Blvd Carson,33.8080836,-118.2375218,90745,(913) 384-5793
Albertsons,10 E Carson St Carson,33.8317235,-118.2222101,90745,(919) 751-2149
Albertsons,255 E 2nd St Long Beach,33.75684063265306,-118.12217236734693,90803,(562) 430-4822
Albertsons,400 E South St Long Beach,33.859959,-118.188258,90805,(562) 529-6098
Albertsons,01 E Willow St Long Beach,33.8043329,-118.1887211,90806,(562) 988-8785
Albertsons,235 E Spring St Long Beach,36.6915001202981,-93.11751727359886,90808,(562) 425-8456
Albertsons,44 Redondo Ave Long Beach,33.7615690625,-118.1523784375,90814,(562) 439-4004
Albertsons,98 E Live Oak Ave Arcadia,34.107692,-118.027565,91006,(626) 446-1416
Albertsons,50 Parkrose Ave Monrovia,34.1475749,-117.9839548,91016,(626) 287-7581
Albertsons,25 E Huntington Dr Monrovia,34.140492,-117.9902343,91016,(626) 305-4231
Albertsons,841 E Sierra Madre Blvd Pasadena,34.1616647,-118.089666,91107,(626) 351-0076
Albertsons,8555 Devonshire St Northridge,34.2572657,-118.5523141,91324,(818) 368-3694
Albertsons,6201 San Fernando Mission Blvd Granada Hills,34.2720214,-118.4999823,91344,(818) 366-9555
Albertsons,8571 Soledad Canyon Rd Canyon Country,34.4157804,-118.4637084,91351,(661) 298-0233
Albertsons,770 Lindero Canyon Rd Thousand Oaks,34.1807323,-118.7867465,91362,(818) 889-9819
Albertsons,6850 The Old Rd Stevenson Ranch,34.3843354,-118.571767,91381,(661) 799-9473
Albertsons,227 Van Nuys Blvd Van Nuys,34.2029734,-118.4487032,91405,(818) 787-8035
Albertsons,830 W Verdugo Ave Burbank,34.1615837,-118.3419488,91505,(818) 954-0817
Albertsons,1358 Kenyon Way Rancho Cucamonga,34.1336604,-117.5549627,91701,(909) 476-9874
Albertsons,255 Grand Ave Chino Hills,34.0022518,-117.7329487,91709,(909) 590-3660
Albertsons,5970 Los Serranos Country Club Dr Chino Hills,33.9628267,-117.6947695,91709,(909) 606-8184
Albertsons,2013 Central Ave Chino,33.9959337,-117.6890847,91710,(909) 464-1594
Albertsons,000 N Azusa Ave Covina,34.0894755,-117.9078857,91722,(626) 974-1763
Albertsons,850 Foothill Blvd Rancho Cucamonga,34.1063081,-117.5554488,91730,(909) 484-7237
Albertsons,775 Baseline Rd Rancho Cucamonga,34.1214703,-117.5169859,91730,(909) 980-0728
Albertsons,9725 Colima Rd Rowland Heights,33.9874586,-117.8886706,91748,(909) 869-7886
Albertsons,522 S Grove Ave Ontario,34.05605083243243,-117.62872274594594,91761,(909) 947-1055
Albertsons,000 N Mountain Ave Ontario,34.0857152,-117.6702345,91762,(410) 728-8626
Albertsons,235 S Diamond Bar Blvd Diamond Bar,34.0008891,-117.8112737,91765,(909) 861-6207
Albertsons,33 E Las Tunas Dr San Gabriel,34.1034686,-118.0812706,91776,(626) 287-7581
Albertsons,595 Rosemead Blvd Temple City,34.0988234,-118.0734238,91780,(626) 287-0907
Albertsons,028 N Mountain Ave Upland,34.09470459366124,-117.67005090887952,91786,(909) 931-5752
Albertsons,8730 Amar Rd Walnut,34.0369131,-117.8675933,91789,(626) 965-7377
Albertsons,630 E Workman Ave West Covina,34.0755021,-117.9262345,91791,(626) 331-5532
Albertsons,400 W Commonwealth Ave Alhambra,34.089997,-118.129106,91803,(626) 576-3900
Albertsons,310 Proctor Valley Rd Chula Vista,32.6616465,-116.9576258,91914,(619) 482-2930
Albertsons,660 El Camino Real Carlsbad,33.1535493,-117.3118208,92009,(760) 633-3589
Albertsons,899 Jamacha Rd El Cajon,32.78368889208683,-116.9277940931774,92019,(619) 670-7880
Albertsons,608 Broadway El Cajon,32.80776642304825,-116.95512748680625,92021,(619) 579-3463
Albertsons,509 E Valley Pkwy Escondido,33.1451231,-117.0364256,92027,(760) 735-5131
Albertsons,570 W Valley Pkwy Escondido,33.1002968,-117.1076592,92029,(760) 738-1669
Albertsons,450 Marron Rd Oceanside,33.1782514,-117.2951207,92056,(760) 729-3468
Albertsons,150 Oceanside Blvd Oceanside,33.207379,-117.2844469,92056,(760) 940-8282
Albertsons,925 Mission Ave Oceanside,33.2035602,-117.3656456,92058,(760) 433-8107
Albertsons,4837 Pomerado Rd Poway,32.975295,-117.062434,92064,(858) 748-9555
Albertsons,459 Main St Ramona,33.04679993918645,-116.86006140603061,92065,(760) 789-0023
Albertsons,51 Woodland Pkwy San Marcos,33.14072296819221,-117.13969442290161,92069,(760) 736-8880
Albertsons,71 Larchwood Dr San Marcos,33.1472153,-117.1366856,92069,(760) 798-2116
Albertsons,870 N Magnolia Ave Santee,32.8551752,-116.9711514,92071,(619) 449-4217
Albertsons,929 W San Marcos Blvd San Marcos,33.1326065,-117.1958816,92078,(760) 598-7272
Albertsons,61 S Twin Oaks Valley Rd San Marcos,33.1409467,-117.1637798,92078,(760) 798-2824
Albertsons,601 S Melrose Dr Vista,33.1639743,-117.244798,92081,(760) 598-0142
Albertsons,44 14th St San Diego,32.705807312224294,-117.15198349286764,92101,(619) 237-1247
Albertsons,55 14th St San Diego,32.70587345025033,-117.15178474475238,92101,(619) 237-9127
Albertsons,22 W Washington St San Diego,32.7438933,-117.1808973,92103,(619) 291-1277
Albertsons,421 University Ave San Diego,32.749521,-117.0899939,92105,(619) 563-7575
Albertsons,30 Turquoise St San Diego,32.8082504,-117.2611165,92109,(858) 488-0600
Albertsons,715 Balboa Ave San Diego,32.8202244,-117.1727675,92111,(858) 576-2270
Albertsons,220 Balboa Ave San Diego,32.8111496,-117.204575,92117,(858) 270-7140
Albertsons,50 B Ave Coronado,32.6892142,-117.1750333,92118,(619) 234-1523
Albertsons,185 Waring Rd San Diego,32.7973803,-117.0720504,92120,(619) 582-1607
Albertsons,510 Genesee Ave San Diego,32.8543629,-117.2043844,92122,(877) 932-7948
Albertsons,4340 Penasquitos Dr San Diego,32.9796908,-117.0929423,92129,(858) 672-2552
Albertsons,7 22 Via Genoa Indio,33.705753,-116.2170037,92201,(760) 342-6890
Albertsons,40 E Hobsonway Blythe,33.6107278,-114.5795177,92225,(760) 922-4099
Albertsons,1655 Date Palm Dr Cathedral City,33.7858429,-116.4580472,92234,(760) 202-0715
Albertsons,5935 Date Palm Dr Cathedral City,33.7858429,-116.4580472,92234,(760) 328-8046
Albertsons,3053 Avenue 48 Coachella,33.7003382,-116.1934919,92236,(760) 342-8057
Albertsons,4590 Highway 111 Palm Desert,33.7257859,-116.4007646,92260,(760) 340-1201
Albertsons,3 101 Country Club Dr Palm Desert,33.758170896073004,-116.36564050670893,92260,(760) 346-2036
Albertsons,4580 Highway 111 Palm Desert,33.7257859,-116.4007646,92260,(760) 346-2566
Albertsons,751 N Sunrise Way Palm Springs,33.83349875868515,-116.52832155882473,92262,(760) 322-1131
Albertsons,840 Sierra Ave Fontana,34.1009162,-117.4357621,92335,(909) 350-0232
Albertsons,6055 Foothill Blvd Fontana,34.1064803,-117.4888866,92335,(909) 822-7037
Albertsons,201 Boulder Ave Highland,34.1281495,-117.1954414,92346,(909) 425-9100
Albertsons,50 E Cypress Ave Redlands,34.04807630598559,-117.17505416573276,92373,(909) 792-1114
Albertsons,51 W Base Line Rd Rialto,34.1213863,-117.3966548,92376,(909) 873-4100
Albertsons,3650 Bear Valley Rd Victorville,34.4705606,-117.3314877,92392,(760) 243-6862
Albertsons,40 W 40th St San Bernardino,34.1649144,-117.2866894,92407,(909) 883-5666
Albertsons,451 Dixie Ln Riverside,33.8838021,-117.5022984,92503,(951) 279-8698
Albertsons,975 Van Buren Blvd Riverside,33.9145388,-117.4415868,92503,(951) 689-2252
Albertsons,202 Arlington Ave Riverside,33.9460725,-117.4247657,92504,(951) 359-8045
Albertsons,0901 Riverside Dr Lake Elsinore,33.6806286,-117.3701263,92530,(951) 245-4461
Albertsons,2281 Mission Trl Lake Elsinore,33.6342682,-117.2906893,92530,(951) 674-0771
Albertsons,1000 California Oaks Rd Murrieta,33.5662841,-117.2066466,92562,(951) 600-1127
Albertsons,9140 Winchester Rd Murrieta,33.5760248,-117.1347217,92563,(951) 600-4461
Albertsons,560 N Perris Blvd Perris,33.79184553828199,-117.22620351594892,92571,(951) 943-4611
Albertsons,6100 Newport Rd Menifee,33.6849873,-117.158769,92584,(951) 301-3852
Albertsons,3893 Clinton Keith Rd Wildomar,33.5955946,-117.2453985,92595,(951) 600-4607
Albertsons,3805 Clinton Keith Rd Wildomar,33.5955946,-117.2453985,92595,(951) 600-4607
Albertsons,931 Irvine Blvd Irvine,33.7213013,-117.7709702,92602,(714) 734-5655
Albertsons,4201 Jeffrey Rd Irvine,33.7049491,-117.7535873,92620,(949) 733-0945
Albertsons,3601 Del Obispo St Dana Point,33.4677545,-117.6850639,92629,(949) 496-9490
Albertsons,051 Atlanta Ave Huntington Beach,33.6576961,-117.9773244,92646,(714) 962-3338
Albertsons,201 Yorktown Ave Huntington Beach,33.6795846,-117.9590459,92648,(714) 536-3679
Albertsons,0922 Coast Hwy Laguna Beach,33.560364,-117.8211395,92651,(949) 499-1733
Albertsons,04 Avenida Pico San Clemente,33.4377457,-117.6234734,92673,(949) 492-1755
Albertsons,0241 Golden Lantern Laguna Niguel,33.5418385,-117.6907027,92677,(949) 363-0456
Albertsons,9941 Alicia Pkwy Laguna Niguel,33.5261917,-117.7164735,92677,(949) 495-1891
Albertsons,755 Westminster Blvd Westminster,33.75919,-117.9919216,92683,(714) 898-3668
Albertsons,5872 Muirlands Blvd Mission Viejo,33.605152,-117.6802406,92691,(949) 461-0099
Albertsons,3072 Alicia Pkwy Mission Viejo,33.6278774,-117.6508976,92692,(949) 583-9779
Albertsons,7702 Crown Valley Pkwy Ste B Ladera Ranch,33.5653323,-117.6437505,92694,(949) 364-2098
Albertsons,329 S Bristol St Santa Ana,33.7145457,-117.8853606,92704,(714) 557-9015
Albertsons,70 S Harbor Blvd Santa Ana,33.7169828,-117.9207977,92704,(714) 839-5371
Albertsons,000 E 17th St Santa Ana,33.7599507,-117.8384739,92705,(714) 541-9100
Albertsons,8579 Brookhurst St Fountain Valley,33.710707,-117.9545285,92708,(714) 378-0196
Albertsons,3270 Newport Ave Tustin,33.7403336,-117.8200431,92780,(714) 544-8525
Albertsons,822 Katella Ave Anaheim,33.8034096,-117.906521,92804,(714) 636-1872
Albertsons,10 S State College Blvd Anaheim,33.833205,-117.889187,92806,(714) 533-4790
Albertsons,00 N Puente St Brea,33.9298591,-117.9156212,92821,(714) 990-8200
Albertsons,20 N Raymond Ave Fullerton,33.8723479,-117.907012,92831,(714) 870-7713
Albertsons,23 Imperial Hwy Fullerton,33.9172034,-117.9023827,92835,(562) 697-1786
Albertsons,41 Imperial Hwy Fullerton,33.9172034,-117.9023827,92835,(562) 697-1786
Albertsons,3220 Harbor Blvd Garden Grove,33.7644244,-117.9204038,92843,(714) 539-1351
Albertsons,100 Hamner Ave Norco,33.9261485,-117.5585603,92860,(951) 738-8880
Albertsons,440 E Chapman Ave Orange,33.7877854431734,-117.84936840488378,92869,(714) 771-7933
Albertsons,471 Kennedy Dr Corona,33.8923509,-117.5146781,92879,(951) 279-2482
Albertsons,260 E Ontario Ave Corona,33.8513257,-117.5508707,92881,(951) 734-8451
Albertsons,50 W Olive St Corona,33.8687781,-117.5755665,92882,(951) 279-0721
Albertsons,066 W 7th St Corona,33.8752941,-117.5754631,92882,(951) 279-2693
Albertsons,1500 Yorba Linda Blvd Yorba Linda,33.8832269,-117.7554119,92887,(714) 693-7488
Albertsons,800 Telegraph Rd Ventura,34.283349,-119.1808384,93004,(805) 647-0023
Albertsons,018 Casitas Pass Rd Carpinteria,34.398011,-119.509015,93013,(805) 684-4815
Albertsons,75 W Los Angeles Ave Moorpark,34.279092957325815,-118.88288769180318,93021,(805) 523-9595
Albertsons,30 N Ventura Rd Oxnard,34.2114911,-119.1945838,93030,(805) 981-8954
Albertsons,20 N Ventura Rd Oxnard,34.2203542,-119.1946948,93030,(805) 983-0238
Albertsons,401 Saviers Rd Oxnard,34.1725463,-119.1775063,93033,(805) 385-2928
Albertsons,135 E Los Angeles Ave Simi Valley,34.27179667431753,-118.79415220461254,93063,(805) 520-9298
Albertsons,268 Madera Rd Simi Valley,34.2872068,-118.7902008,93065,(805) 520-9306
Albertsons,800 Cochran St Simi Valley,34.28005841439469,-118.78610869249421,93065,(805) 522-9000
Albertsons,943 State St Santa Barbara,34.433583,-119.7185175,93105,(805) 683-0970
Albertsons,127 Hollister Ave Goleta,34.4269128,-119.88730644435532,93117,(805) 968-3558
Albertsons,044 Kern St Taft,35.143643,-119.461095,93268,(661) 763-4298
Albertsons,520 Brundage Ln Bakersfield,35.353988939393936,-119.0076683939394,93304,(661) 328-0835
Albertsons,132 W Branch St Arroyo Grande,35.12263302619492,-120.5804851762871,93420,(805) 474-4909
Albertsons,200 El Camino Real Atascadero,35.522777,-120.703979,93422,(805) 462-0379
Albertsons,300 El Camino Real Atascadero,35.52329206177886,-120.70390971790214,93422,(877) 932-7948
Albertsons,500 N H St Lompoc,34.64555,-120.457665,93436,(805) 736-3850
Albertsons,30 Quintana Rd Morro Bay,35.3633079,-120.8230992,93442,(805) 772-0670
Albertsons,89 Niblick Rd Paso Robles,35.61535992461994,-120.68900853251716,93446,(805) 237-1626
Albertsons,830 N Broadway Santa Maria,34.961600874999995,-120.43557112500001,93454,(805) 348-3552
Albertsons,120 E Clark Ave Santa Maria,34.8650769,-120.405105,93455,(805) 934-3243
Albertsons,010 E Avenue J Lancaster,34.6896378,-118.1003988,93535,(661) 948-9620
Albertsons,8727 Tierra Subida Ave Palmdale,34.5837676,-118.1474573,93551,(661) 274-9557
Albertsons,038 W Avenue N Palmdale,34.630812,-118.2201426,93551,(661) 718-3791
Albertsons,27 S China Lake Blvd Ridgecrest,35.6128145,-117.6700567,93555,(760) 384-4015
Albertsons,301 N Norma St Ridgecrest,35.627856,-117.678966,93555,(760) 446-1506
Albertsons,425 N Blackstone Ave Fresno,36.749121373312995,-119.79061966747354,93703,(559) 229-3119
Albertsons,223 N Davis Rd Salinas,36.6872375,-121.6729732,93907,(831) 753-7400
Albertsons,00 Country Club Gate Ctr Pacific Grove,36.609203,-121.922828,93950,(831) 373-7381
Albertsons,843 Mission St Daly City,37.6927793,-122.4650425,94014,(650) 992-9490
Albertsons,322 El Camino Real San Bruno,37.6352871,-122.4203064,94066,(650) 742-9737
Albertsons,133 Old County Rd San Carlos,37.51164997488406,-122.26414081209977,94070,(650) 637-1780
Albertsons,84 N Mathilda Ave Sunnyvale,37.384489,-122.0320671,94085,(408) 749-8200
Albertsons,515 Sloat Blvd San Francisco,37.734674,-122.4784399,94132,(415) 681-4136
Albertsons,000 Mowry Ave Fremont,37.5375261,-121.997557,94538,(510) 744-1660
Albertsons,2555 Mission Blvd Hayward,37.6717367,-122.0836281,94541,(510) 538-7819
Albertsons,5151 Santa Clara St Hayward,37.6631389,-122.1021809,94544,(510) 670-0821
Albertsons,701 Marina Blvd San Leandro,37.71456385563133,-122.15660663587819,94577,(877) 932-7948
Albertsons,300 Fairmont Dr San Leandro,37.7034882,-122.125963,94578,(510) 276-8106
Albertsons,5840 Hesperian Blvd San Lorenzo,37.6865108,-122.1299203,94580,(510) 276-9395
Albertsons,1001 San Ramon Valley Blvd San Ramon,37.7583721,-121.9675018,94583,(925) 828-1200
Albertsons,25 Sunset Ave Suisun City,38.2493438,-122.020542,94585,(877) 932-7948
Albertsons,2300 Dyer St Union City,37.5897243,-122.0697886,94587,(510) 441-9393
Albertsons,740 Tuolumne St Vallejo,38.10754309375,-122.238082,94589,(707) 645-7329
Albertsons,47 E 18th St Oakland,37.80020159375,-122.2530006875,94606,(510) 272-9042
Albertsons,963 Mountain Blvd Oakland,37.84106923217644,-122.22058514384273,94611,(510) 339-4291
Albertsons,70 Magnolia Ave Larkspur,37.927932861513256,-122.5319720805148,94939,(415) 924-6738
Albertsons,705 El Camino Real Santa Clara,37.3522924,-121.9947997,95051,(408) 249-6700
Albertsons,44 Blossom Hill Rd San Jose,37.251397,-121.83092,95123,(408) 578-8484
Albertsons,792 Southwest Expy San Jose,37.3119464,-121.9159369,95126,(408) 947-0970
Albertsons,094 G St Merced,37.06885067506219,-120.85564783206999,95340,(877) 932-7948
Albertsons,01 N Golden State Blvd Turlock,37.5297737,-120.8863852,95380,(209) 634-2953
Albertsons,9181 Sonoma Hwy Sonoma,38.417442750000006,-122.54917,95476,(707) 996-1271
Albertsons,86 Elm Ave Auburn,38.9030456,-121.0686079,95603,(530) 823-6054
Albertsons,184 Sunrise Mall Citrus Heights,38.67465675,-121.26877812260645,95610,(916) 726-1813
Albertsons,160 Elk Grove Blvd Elk Grove,38.4093087,-121.3874251,95624,(916) 685-5299
Albertsons,003 E Bidwell St Folsom,38.6436751,-121.114978,95630,(916) 983-0186
Albertsons,003 Bidwell St Folsom,38.673617,-121.1727724,95630,(916) 983-4084
Albertsons,1980 State Highway 88 Jackson,35.7456619,-89.0978511,95642,(209) 223-5945
Albertsons,839 Greenback Ln Orangevale,38.6785096,-121.2355734,95662,(916) 989-3915
Albertsons,270 Broadway Placerville,38.7298863,-120.7663712,95667,(530) 622-1291
Albertsons,979 Peabody Rd Vacaville,38.3527446,-121.976153,95687,(707) 452-0145
Albertsons,77 E Monte Vista Ave Vacaville,38.3608767,-121.9742724,95688,(707) 448-5723
Albertsons,060 Foothills Blvd Roseville,38.7826873,-121.3137483,95747,(916) 782-2720
Albertsons,021 Stanford Ranch Rd Rocklin,38.7861194,-121.266249,95765,(916) 435-2828
Albertsons,550 Arcade Blvd Sacramento,38.624440824185925,-121.452772626693,95815,(916) 923-2093
Albertsons,137 Kiefer Blvd Sacramento,38.5466435,-121.3921686,95826,(916) 366-3555
Albertsons,291 Truxel Rd Sacramento,38.6215506,-121.4979215,95833,(916) 646-2023
Albertsons,054 Nevada City Hwy Grass Valley,39.2412044,-121.0368983,95945,(530) 477-9511
Albertsons,2054 Nevada City Hwy Grass Valley,39.237548968456,-121.03637704870766,95945,(530) 477-9511
Albertsons,636 Clark Rd Paradise,39.744714,-121.607648,95969,(530) 877-0522
Albertsons,00 River Rd Tahoe City,39.1751505,-120.189345,96145,(530) 583-5231
Apna Bazaar,992 Amador Valley Blvd Dublin,37.7161297,-121.9167651,94568,(925) 829-6093
Apna Bazaar,500 Commerce Blvd Cotati,38.3358259,-122.7122783,94931,(707) 665-0333
Arteaga's Starlite Supermarket,436 E Anaheim St Long Beach,33.7826007,-118.1491829,90813,(562) 591-7629
Arteaga's Starlite Supermarket,12 5th Ave Redwood City,37.4852872,-122.1964767,94063,(650) 364-1718
Arteaga's Starlite Supermarket,33 E Duane Ave Sunnyvale,37.388702,-122.0145572,94085,(408) 735-7277
Arteaga's Starlite Supermarket,11 1st St Gilroy,37.0134763,-121.5982883,95020,(408) 842-9067
Arteaga's Starlite Supermarket,906 Chestnut St Gilroy,36.9964562,-121.5599937,95020,(408) 847-7542
Arteaga's Starlite Supermarket,40 Sacramento Ave West Sacramento,38.5891201,-121.5335717,95605,(916) 375-0598
Azteca Mkt.,370 Verdugo Rd Los Angeles,34.1215738,-118.2301497,90065,(323) 258-4745
Azteca Mkt.,748 Lankershim Blvd North Hollywood,34.1846135,-118.3865453,91606,(818) 765-3536
Azteca Mkt.,83 Avenue Of The Flags Buellton,34.6200763,-120.1900802,93427,(805) 693-1614
Azteco Mkt.,2017 Civic Center Dr Hawaiian Gardens,33.8295198,-118.0750454,90716,(562) 425-3169
Basic American Foods,100 N Market Blvd Sacramento,38.6473163,-121.4769016,95834,(916) 928-4324
Bel Air Supermarkets,323 Roscomare Rd Los Angeles,34.1100653,-118.463564,90077,(912) 748-0943
Bel Air Supermarkets,3384 Lincoln Way Auburn,38.8983171,-121.072385,95603,(530) 885-0669
Bel Air Supermarkets,425 Elk Grove Florin Rd Elk Grove,38.4199387,-121.3716678,95624,(916) 681-5775
Bel Air Supermarkets,787 Elk Grove Blvd Elk Grove,38.4093087,-121.3874251,95624,(916) 685-2282
Bel Air Supermarkets,26 Cameron Way Roseville,38.7317141,-121.2990453,95678,(916) 786-0210
Bel Air Supermarkets,100 Laguna Blvd Elk Grove,38.4233097,-121.4454759,95758,(916) 684-7007
Better Brand Foods Inc.,55 Rodriguez St Watsonville,36.91375348571428,-121.76537885714286,95076,(831) 724-7243
BI-Rite Supermarket,913 N Broadway Los Angeles,34.0736824,-118.2125651,90031,(323) 222-7189
Big Saver Foods,829 Compton Ave Los Angeles,33.9911658,-118.2477611,90001,(323) 582-8295
Big Saver Foods,859 Compton Ave Los Angeles,33.9911658,-118.2477611,90001,(323) 582-8295
Big Saver Foods,000 N Broadway Los Angeles,34.0736824,-118.2125651,90031,(323) 222-3524
Big Saver Foods,168 Huntington Dr S Los Angeles,34.0825378,-118.1895502,90032,(323) 222-9130
Big Saver Foods,619 N Figueroa St Los Angeles,34.049928333333334,-118.25947116666667,90065,(323) 222-0113
Big Saver Foods,4310 Hawthorne Blvd Lawndale,33.8873304,-118.3523901,90260,(910) 588-4090
Big Saver Foods,406 Washington Blvd Pico Rivera,33.9790243,-118.0895185,90660,(562) 949-6299
Big Saver Foods,6000 Woodruff Ave Bellflower,33.8737392,-118.1172799,90706,(562) 920-7912
Big Saver Foods,500 W Willow St Long Beach,33.8044213,-118.2165202,90810,(562) 595-7595
Big Saver Foods,344 W Wardlow Rd Long Beach,33.81889133333333,-118.196534,90810,(562) 595-7595
Big Saver Foods,920 Valley Blvd El Monte,34.0751552,-118.0354684,91731,(626) 575-7701
Big Saver Foods,619 Garvey Ave Rosemead,34.0626697,-118.0799764,91770,(626) 571-7816
Big Saver Foods,981 Chicago Ave Riverside,33.9694758,-117.3485051,92507,(951) 684-1038
Big Saver Foods,20 W 17th St Santa Ana,33.7601094,-117.8774582,92706,(714) 541-8154
Bunge Foods,5601 Mosher Ave Tustin,33.7170097,-117.835763,92780,(714) 258-1223
Bunge Foods,36 S Mcclure Rd Modesto,37.6299059,-120.9297769,95357,(209) 574-9981
Cala Foods Inc,095 Hyde St San Francisco,37.781446263157896,-122.4155682631579,94109,(415) 776-3650
Cala Foods Inc,245 S Van Ness Ave San Francisco,37.777944796875,-122.41963318750001,94110,(415) 282-0514
California Creative Foods,235 Production Ave Oceanside,33.2155822,-117.3480947,92054,(760) 721-2600
California Creative Foods,49 Benet Rd Oceanside,33.2197472,-117.3579447,92054,(760) 757-2622
California Custom Foods,2 E Tokay St Lodi,38.126355,-121.272729,95240,(209) 369-3333
California Family Foods,550 Struckmeyer Rd Arbuckle,39.045548,-122.069818,95912,(530) 476-3326
Cardenas Foods,040 Jackson St Paramount,33.8854235,-118.1614271,90723,(562) 220-1570
Cardenas Foods,809 Howe St Paramount,33.9072843,-118.1536625,90723,(562) 630-3050
Cardenas Foods,90 E Holt Ave Pomona,34.0628847,-117.7290434,91767,(909) 629-1666
Cardenas Foods,2229 Us Highway 111 Indio,33.7149046,-116.2091416,92201,(760) 347-8114
Cardenas Foods,620 N Imperial Ave El Centro,32.797601,-115.570119,92243,(760) 482-0139
Cardenas Foods,963 Sierra Ave Fontana,34.0993638,-117.4357387,92335,(909) 429-2070
Cardenas Foods,50 W Foothill Blvd Rialto,34.1067493,-117.3875169,92376,(909) 873-2228
Cardenas Foods,350 Van Buren Blvd Riverside,33.9145388,-117.4415868,92503,(951) 343-7877
Cardenas Foods,475 S San Jacinto Ave San Jacinto,33.79949772727273,-116.95906995454546,92583,(951) 487-9466
Cardenas Foods,01 S Lincoln Ave Corona,33.8577212,-117.5862307,92882,(951) 371-9030
Chavez Supermarket,282 Middlefield Rd Menlo Park,37.4560664038418,-122.16722904625165,94025,(650) 365-6510
Chavez Supermarket,75 Arguello St Redwood City,37.4899079,-122.2366185,94063,(650) 367-8819
Chavez Supermarket,17 Arguello St Redwood City,37.4899079,-122.2366185,94063,(650) 367-9745
Chavez Supermarket,6 5th Ave Redwood City,37.4852872,-122.1964767,94063,(650) 701-1801
Chavez Supermarket,66 N Fair Oaks Ave Sunnyvale,37.382057,-122.0182986,94085,(408) 736-3793
Chavez Supermarket,157 W Tennyson Rd Hayward,37.633963127992764,-122.0644014425785,94544,(510) 783-4052
Chavez Supermarket,327 Mckee Rd San Jose,37.3632935,-121.8531915,95116,(408) 929-5208
Chavez Supermarket,72 Lochridge Dr San Jose,37.3614848,-121.8621887,95133,(408) 929-5208
City Market,107 Venice Blvd Los Angeles,34.0439978,-118.3263079,90019,(323) 938-3256
City Market,1400 Nordhoff St Chatsworth,34.2354683,-118.5877718,91311,(866) 455-4037
City Market,01 Linden Ave Carpinteria,34.4003647,-119.5171268,93013,(805) 566-0159
City Market,825 Greenback Ln Citrus Heights,38.6782991,-121.3014,95621,(916) 725-1660
Costco,901 Los Feliz Blvd Los Angeles,34.1246925,-118.2662292,90039,(323) 644-5200
Costco,383 Wilshire Blvd Beverly Hills,34.067049,-118.3850928,90211,(323) 782-8944
Costco,3463 Washington Blvd Culver City,34.0272477,-118.3881089,90232,(917) 441-5960
Costco,4501 Hindry Ave Hawthorne,33.9027845,-118.3730663,90250,(916) 989-3915
Costco,3401 Washington Blvd Marina Del Rey,33.9814071,-118.4629187,90292,(914) 788-1909
Costco,3463 Washington Blvd Marina Del Rey,33.9814071,-118.4629187,90292,(917) 441-5960
Costco,3411 Washington Blvd Marina Del Rey,33.9814071,-118.4629187,90292,(919) 362-4125
Costco,560 W Century Blvd Inglewood,33.9454037,-118.3184583,90303,(910) 285-2445
Costco,751 Skypark Dr Torrance,33.8113146,-118.3510668,90505,(919) 828-9216
Costco,881 8th St Buena Park,33.8669981,-118.0015003,90620,(714) 562-9000
Costco,01 N Beach Blvd La Habra,33.9393416,-117.9680198,90631,(562) 524-0001
Costco,401 Katella Ave Los Alamitos,33.8031957,-118.0833872,90720,(562) 668-5152
Costco,200 E Willow St Signal Hill,33.8044691,-118.1659692,90755,(562) 427-2537
Costco,28 W Willow St Long Beach,33.8043207,-118.1980721,90806,(562) 424-2837
Costco,1300 Roscoe Blvd Canoga Park,34.2197956,-118.5976667,91304,(818) 884-7935
Costco,810 Tampa Ave Northridge,34.2426301,-118.5535899,91324,(818) 428-0003
Costco,700 Lindero Canyon Rd Thousand Oaks,34.1807323,-118.7867465,91362,(818) 540-2020
Costco,8649 Via Princessa Canyon Country,34.4084629,-118.4692385,91387,(661) 250-2818
Costco,100 Sepulveda Blvd Van Nuys,34.1719757,-118.466183,91411,(818) 989-0829
Costco,400 W Riverside Dr Burbank,34.1529846,-118.3395427,91505,(818) 557-3784
Costco,220 W Foothill Blvd Azusa,34.13339657894737,-117.90915510526315,91702,(626) 812-7905
Costco,3111 Peyton Dr Chino,33.983748,-117.7324766,91708,(909) 664-9902
Costco,3111 Peyton Dr Chino Hills,33.985102,-117.7324682,91709,(909) 664-9902
Costco,404 Central Ave Montclair,34.0679418,-117.6896433,91763,(909) 575-5009
Costco,20 N Lone Hill Ave San Dimas,34.1113346,-117.8288145,91773,(909) 962-5507
Costco,207 W Commonwealth Ave Alhambra,34.0874839,-118.1348019,91803,(626) 289-7164
Costco,95 E H St Chula Vista,32.63683441114602,-117.06879529467709,91910,(619) 482-4405
Costco,130 Broadway Chula Vista,32.600657,-117.0776915,91911,(619) 205-1501
Costco,100 Fletcher Pkwy La Mesa,32.7778606,-117.0179059,91942,(619) 667-8513
Costco,125 Fletcher Pkwy La Mesa,32.7778606,-117.0179059,91942,(619) 697-9933
Costco,001 W 19th St National City,32.665047,-117.107842,91950,(619) 477-0125
Costco,0281 Greenleaf Rd Spring Valley,32.716305,-116.978996,91977,(619) 447-0290
Costco,51 Palomar Airport Rd Carlsbad,33.1223988,-117.3253817,92011,(760) 929-0154
Costco,2155 Tech Center Dr Poway,32.936623,-117.036537,92064,(858) 848-2456
Costco,25 Center Dr San Marcos,33.1351727,-117.1194907,92069,(760) 741-5627
Costco,01 Town Center Pkwy Santee,32.838815,-116.988235,92071,(619) 562-1560
Costco,755 Hacienda Dr Vista,33.1935873958275,-117.25848871287367,92081,(760) 631-2176
Costco,50 Gateway Center Dr San Diego,32.7125467,-117.1142695,92102,(619) 358-2301
Costco,50 Gateway Center Way San Diego,32.714054,-117.112373,92102,(619) 358-2301
Costco,345 Fenton Pkwy San Diego,32.7852545,-117.1335039,92108,(619) 358-4001
Costco,605 Morena Blvd San Diego,32.8033834,-117.2123665,92117,(619) 358-2303
Costco,649 Morena Blvd San Diego,32.8033834,-117.2123665,92117,(858) 270-7643
Costco,949 Morena Blvd San Diego,32.8033834,-117.2123665,92117,(858) 812-1400
Costco,01 Towne Centre Dr San Diego,32.8728157,-117.2073574,92121,(619) 562-2812
Costco,130 Miramar Rd San Diego,32.8776062,-117.1711784,92121,(858) 790-6750
Costco,125 Fletcher Pkwy San Diego,32.807596,-116.964751174698,92138,(619) 697-9933
Costco,1373 Date Palm Ave Indio,33.7189297,-116.2436506,92201,(760) 342-0655
Costco,6670 Desert Villa St Indio,33.7095911,-116.241738,92201,(760) 775-8891
Costco,4136 Avenue 44 Indio,33.7294616,-116.213139,92203,(760) 347-0329
Costco,2800 Dinah Shore Dr Palm Desert,33.78746,-116.365346,92211,(760) 202-7120
Costco,2800 Dinah Shore Dr Cathedral City,33.8014309,-116.4406283,92234,(760) 202-7120
Costco,030 N Imperial Ave El Centro,32.7964712,-115.5700234,92243,(760) 353-8592
Costco,9795 Highway 111 La Quinta,33.7074609,-116.2774465,92253,(760) 342-0655
Costco,2800 Dinah Shore Dr Rancho Mirage,33.801592,-116.4233862,92270,(760) 202-7120
Costco,257 Live Oak Ave Fontana,34.0433968,-117.4822044,92335,(909) 823-0570
Costco,321 Tokay Ave Fontana,34.1108408,-117.4559017,92335,(909) 823-0671
Costco,6960 San Bernardino Ave Fontana,34.0773386,-117.5011095,92335,(909) 823-5051
Costco,6805 Randall Ave Fontana,34.0848319,-117.4466096,92335,(909) 823-8270
Costco,6505 Sierra Lakes Pkwy Fontana,34.1384684,-117.4753431,92336,(909) 770-5639
Costco,5242 Mcdonnell Ave Fontana,34.129166,-117.4678184,92336,(909) 823-5269
Costco,4601 Valley Center Dr Victorville,34.5166766,-117.318507,92395,(760) 524-9000
Costco,4555 Valley Center Dr Victorville,34.5166766,-117.318507,92395,(760) 524-9902
Costco,an Bernardino,34.07382124514118,-117.2696712662391,92408,(888) 724-9267
Costco,099 E Hospitality Ln San Bernardino,34.0662695,-117.2768057,92408,(909) 478-0115
Costco,25 E Club Center Dr San Bernardino,34.0604901,-117.2837602,92408,(909) 478-3364
Costco,9315 Central Ave Lake Elsinore,33.7009141,-117.3281141,92532,(951) 253-6030
Costco,2700 Day St Moreno Valley,33.9358209,-117.2789299,92553,(951) 413-1923
Costco,6610 Ynez Rd Temecula,33.5343339,-117.1629403,92591,(951) 719-2018
Costco,3961 Doheny Park Rd San Juan Capistrano,33.4681174,-117.67622,92675,(949) 240-4814
Costco,7972 Cabot Rd Laguna Niguel,33.5566474,-117.6789324,92677,(949) 364-9239
Costco,7220 Heather Ridge Rd Laguna Niguel,33.5638225,-117.7116689,92677,(949) 389-8700
Costco,7900 Newhope St Fountain Valley,33.7002288,-117.9356228,92708,(714) 434-2702
Costco,6383 Hemlock St Fountain Valley,33.7238651,-117.961612,92708,(714) 534-2307
Costco,700 Park Ave Tustin,33.6983077,-117.8231919,92782,(714) 338-1933
Costco,655 El Camino Real Tustin,33.7246314,-117.7943681,92782,(714) 838-5513
Costco,47 S Magnolia Ave Anaheim,33.8139644,-117.9758005,92804,(714) 761-3826
Costco,00 S Harbor Blvd Fullerton,33.8691836,-117.9243084,92832,(714) 738-7521
Costco,2633 Savi Ranch Pkwy Yorba Linda,33.8758223,-117.7399496,92887,(714) 637-0360
Costco,001 E Ventura Blvd Oxnard,34.233371,-119.1716418,93036,(805) 983-2249
Costco,660 Park Center Dr Simi Valley,34.2847495,-118.7968045,93065,(805) 578-3301
Costco,095 Market Place Dr Goleta,34.4286831,-119.8702513,93117,(805) 685-3199
Costco,750 S Mooney Blvd Visalia,36.3161608,-119.3138055,93277,(559) 625-5869
Costco,800 Rosedale Hwy Bakersfield,35.3832427,-119.0456073,93308,(661) 852-2648
Costco,101 Gilmore Ave Bakersfield,35.38949,-119.044549,93308,(800) 607-6861
Costco,900 Panama Ln Bakersfield,35.2959604,-119.0258065,93313,(661) 398-4750
Costco,an Luis Obispo,35.2586157,-120.6637136807492,93401,(805) 541-7003
Costco,540 Froom Ranch Way San Luis Obispo,35.2525415,-120.6876611,93405,(805) 541-7000
Costco,335 S Bradley Rd Santa Maria,34.950515686868684,-120.41824457575758,93454,(805) 928-8459
Costco,141 W Avenue L Lancaster,34.660358782563314,-118.12660024257973,93534,(661) 802-4475
Costco,100 N Abby St Fresno,36.743431,-119.789286,93720,(559) 437-3643
Costco,544 W Yale Ave Fresno,36.77028509439847,-119.81821643774062,93722,(559) 271-2258
Costco,500 W Shaw Ave Fresno,36.808504933887306,-119.80161964667012,93722,(559) 271-6511
Costco,339 N Davis Rd Salinas,36.6872375,-121.6729732,93907,(831) 751-0508
Costco,01 Tioga Ave Seaside,36.6162308,-121.8453368,93955,(831) 583-9240
Costco,300 Middlefield Rd Redwood City,37.4814437,-122.2200571,94063,(650) 365-9384
Costco,200 Middlefield Rd Redwood City,37.4814437,-122.2200571,94063,(650) 385-6591
Costco,an Carlos,37.50591044223739,-122.26013484101186,94070,(650) 365-8046
Costco,51 S Airport Blvd South San Francisco,37.65144820408163,-122.40911804081632,94080,(650) 872-2021
Costco,50 Lawrence Station Rd Sunnyvale,37.4087513,-121.9958522,94086,(408) 739-3043
Costco,50 10th St San Francisco,37.7727524,-122.4127495,94103,(415) 626-4388
Costco,001 Metro Center Blvd San Mateo,37.5620882,-122.2723423,94404,(650) 286-0763
Costco,201 Verne Roberts Cir Antioch,38.0095472,-121.836431,94509,(925) 470-4603
Costco,400 Monument Blvd Concord,37.9682012,-122.0321426,94520,(925) 566-4000
Costco,150 Fostoria Way Danville,37.7827582,-121.9691232,94526,(925) 277-0163
Costco,101 Business Center Dr Fairfield,38.2320591,-122.113952,94534,(707) 864-3816
Costco,0580 Albrae St Fremont,37.5192833,-121.9828069,94538,(510) 683-6707
Costco,3621 Pacific Commons Blvd Fremont,37.5004026,-121.9685899,94538,(510) 897-1119
Costco,2330 Hathaway Ave Hayward,37.6663878,-122.1034133,94541,(510) 259-6600
Costco,800 Independence Dr Livermore,37.702702,-121.8109621,94551,(925) 443-6056
Costco,900 Davis St San Leandro,37.722299243048035,-122.1650063665989,94577,(510) 562-8241
Costco,720 Stoneridge Dr Pleasanton,37.6908637,-121.8881814,94588,(925) 277-0407
Costco,98 Plaza Dr Vallejo,38.135403,-122.217729,94591,(707) 553-6409
Costco,100 Central Ave Richmond,40.6390513,-74.07660358733591,94804,(510) 898-2020
Costco,801 Central Ave Richmond,37.9646404,-122.369878,94804,(510) 898-2031
Costco,901 Redwood Dr Rohnert Park,38.36262790000001,-122.71500319833982,94928,(707) 540-9118
Costco,00 Vintage Way Novato,38.0935541,-122.5550817,94945,(415) 899-8538
Costco,251 Camino Arroyo Gilroy,36.9977758,-121.5474859,95020,(408) 848-0700
Costco,601 Coleman Ave Santa Clara,37.3583355,-121.9399399,95050,(408) 567-9000
Costco,20 Sylvania Ave Santa Cruz,36.98654953006537,-122.03453192239623,95060,(831) 469-0961
Costco,301 Almaden Expy San Jose,37.2569587,-121.8761216,95118,(408) 979-2513
Costco,709 Automation Pkwy San Jose,37.388641,-121.8829027,95131,(408) 678-2150
Costco,616 E Hammer Ln Stockton,38.0208627852349,-121.30456475838926,95210,(209) 478-2040
Costco,021 Kiltie Way Stockton,38.024215,-121.317208,95210,(209) 478-5813
Costco,250 W Grant Line Rd Tracy,37.75405095918367,-121.42851418367347,95304,(209) 830-5348
Costco,444 R St Merced,37.29210659459459,-120.49955047297297,95340,(209) 381-5620
Costco,801 Pelandale Ave Modesto,37.7005717,-121.0318948,95356,(209) 342-4910
Costco,7880 W Schulte Rd Tracy,37.721811,-121.513098,95377,(209) 221-6200
Costco,955 N Tegner Rd Turlock,37.5198173,-120.8867447,95380,(209) 656-5301
Costco,900 Santa Rosa Ave Santa Rosa,38.43044,-122.710956,95407,(707) 566-6429
Costco,006 W Wabash Ave Eureka,40.79155133333333,-124.170996,95501,(707) 441-0905
Costco,000 Auburn Blvd Citrus Heights,38.6892649,-121.3053187,95621,(916) 560-4004
Costco,981 E Stockton Blvd Elk Grove,38.4386413,-121.3972213,95624,(916) 682-4443
Costco,800 Cavitt Dr Folsom,38.647627,-121.111756,95630,(916) 850-1003
Costco,80 Cavitt Dr Folsom,38.647627,-121.111756,95630,(916) 850-1003
Costco,200 Creekside Dr Folsom,38.672268,-121.143031,95630,(916) 984-3192
Costco,750 Stanford Ranch Rd Roseville,38.7826189,-121.2658103,95678,(916) 789-1616
Costco,501 Hume Way Vacaville,38.3490129,-121.9776093,95687,(707) 453-7342
Costco,051 Hume Way Vacaville,38.3490129,-121.9776093,95687,(707) 453-7343
Costco,1260 White Rock Rd Rancho Cordova,38.58825,-121.2852618,95742,(916) 724-2240
Costco,299 Bronze Star Dr Woodland,38.6699816,-121.7274521,95776,(530) 406-2120
Costco,00 S St Sacramento,38.5520904,-121.4320334,95814,(916) 560-4002
Costco,600 Expo Pkwy Sacramento,38.598238,-121.450447,95815,(916) 563-7002
Costco,981 E Stockton Blvd Sacramento,38.465251,-121.414211,95823,(916) 682-4443
Costco,005 Westboro Way Sacramento,38.466365,-121.424493,95823,(916) 682-7505
Costco,252 Summer Falls Cir Sacramento,38.469305,-121.401885,95828,(916) 682-4045
Costco,977 Colombard Way Sacramento,38.466766,-121.367674,95829,(916) 682-7193
Costco,100 Dr Martin Luther King Junior Pkwy Chico,39.7218053,-121.8087973,95928,(530) 342-6497
Costco,40 Setter Ct Redding,40.5976475,-122.3477304,96003,(530) 222-6515
Dominick's Finer Foods,6212 Auburn Folsom Rd Granite Bay,38.7800843917694,-121.14805987426799,95746,(916) 786-3355
Dot Foods,200 Nickerson Dr Modesto,37.5962459,-120.985549,95358,(209) 581-9090
Draegers Supermarket,42 1st St Los Altos,37.38080043979849,-122.12017624684347,94022,(650) 948-9196
Draegers Supermarket,0101 University Dr Menlo Park,37.44405628846154,-122.17654396153846,94025,(650) 324-7733
Draegers Supermarket,91 Utah Ave South San Francisco,37.6453241,-122.4043902,94080,(650) 871-8473
Draegers Supermarket,22 E 4th Ave San Mateo,37.562517,-122.324649,94401,(650) 685-3797
Eastern Foods,669 Rickenbacker Rd Bell,33.9891656,-118.1619965,90201,(323) 264-3871
Eastern Foods,608 Barrington Ct Hayward,37.6554346,-122.1409677,94545,(510) 784-0374
F'real Foods,7 Avenida De Orinda Orinda,37.88503903020555,-122.19173161027703,94563,(925) 253-8556
F'real Foods,1 Avenida De Orinda Orinda,37.885071,-122.191704,94563,(925) 258-0100
Fairway Foods Inc.,4411 Village Center Dr Idyllwild,33.7435674,-116.7125903,92549,(951) 659-2737
Family Foods,2469 W Washington Blvd Los Angeles,34.0010826,-118.4163415,90066,(912) 262-6663
Family Foods,037 Glenoaks Blvd San Fernando,34.2877775,-118.4266176,91340,(818) 361-1565
Family Foods,780 Sweetwater Springs Blvd Spring Valley,32.733025,-116.971581,91977,(619) 660-6199
Fastop Foods Inc,620 S Main St Lakeport,39.037067916535655,-122.91513801666552,95453,(707) 263-7523
Fastrip Food Store,92 S San Jacinto Ave San Jacinto,33.7816549,-116.9588537,92583,(951) 654-4809
Fastrip Food Store,03 Kern St Taft,35.143643,-119.461095,93268,(661) 763-1352
Fastrip Food Store,798 E Clinton Ave Fresno,36.77212,-119.801202,93703,(559) 454-1908
Fiesta Foods,190 E Tulare St Fresno,36.62645832958899,-119.674801154719,93702,(559) 367-0285
Fiesta Foods,985 E Kings Canyon Rd Fresno,36.7357926,-119.7195341,93727,(559) 456-9941
Fiesta Foods,40 E Boronda Rd Salinas,36.695387482142856,-121.6790780625,93906,(831) 444-7894
Food 4 Less,651 E 103rd St Los Angeles,33.9435654681452,-118.2633205359227,90002,(323) 564-3753
Food 4 Less,091 S Hoover St Los Angeles,33.9295223,-118.2869523,90006,(239) 282-5515
Food 4 Less,717 S Western Ave Los Angeles,34.05932071428572,-118.30917602040817,90006,(323) 731-0164
Food 4 Less,700 W 6th St Los Angeles,34.049448,-118.256519,90017,(229) 928-2784
Food 4 Less,748 W Jefferson Blvd Los Angeles,34.0255524,-118.3179607,90018,(323) 735-8317
Food 4 Less,654 E Olympic Blvd Los Angeles,34.018744,-118.2071418,90023,(323) 980-5067
Food 4 Less,420 W Sunset Blvd Los Angeles,34.0980755,-118.313065,90027,(323) 871-8011
Food 4 Less,910 Huntington Dr S Los Angeles,34.0825378,-118.1895502,90032,(323) 222-2659
Food 4 Less,750 E 1st St Los Angeles,33.85486934657518,-118.39086090002364,90033,(323) 268-0461
Food 4 Less,318 S Main St Los Angeles,33.91939542857143,-118.41583436734695,90037,(323) 846-8895
Food 4 Less,100 N Figueroa St Los Angeles,34.057621,-118.251987,90042,(323) 982-0304
Food 4 Less,820 W Slauson Ave Los Angeles,33.9891493,-118.2888783,90047,(323) 291-2092
Food 4 Less,1407 S Western Ave Los Angeles,33.9590495,-118.3090192,90047,(323) 757-1257
Food 4 Less,1840 Wilmington Ave Los Angeles,33.9329525,-118.2390537,90059,(323) 564-3986
Food 4 Less,963 N Cahuenga Blvd Los Angeles,34.08822336734694,-118.32889579591836,90068,(323) 460-4231
Food 4 Less,901 Eastern Ave Bell,33.9690226,-118.1646882,90201,(323) 771-2003
Food 4 Less,900 W Rosecrans Ave Compton,33.903234,-118.241768,90220,(916) 452-1072
Food 4 Less,100 W Artesia Blvd Compton,33.87445,-118.224612,90220,(800) 427-4438
Food 4 Less,3525 Lakewood Blvd Downey,33.9130799,-118.1406419,90242,(562) 633-0830
Food 4 Less,4500 Ocean Gate Ave Hawthorne,33.9094755,-118.3670805,90250,(916) 685-5525
Food 4 Less,920 Santa Fe Ave Huntington Park,33.9749732,-118.2302552,90255,(323) 585-6430
Food 4 Less,200 W Century Blvd Inglewood,33.9454037,-118.3184583,90303,(916) 850-1003
Food 4 Less,810 Norwalk Blvd Whittier,33.9957688,-118.0582995,90606,(562) 699-3358
Food 4 Less,620 Whittier Blvd Pico Rivera,33.9970243,-118.0742848,90660,(562) 948-3435
Food 4 Less,910 Katella Ave Stanton,33.802966,-117.985953,90680,(714) 934-8600
Food 4 Less,2222 Carson St Hawaiian Gardens,33.8315191,-118.0737374,90716,(562) 429-9135
Food 4 Less,36 W Anaheim St Wilmington,33.7791893,-118.2768793,90744,(919) 781-8776
Food 4 Less,700 Cherry Ave Long Beach,33.8463811,-118.1674706,90805,(562) 220-2373
Food 4 Less,329 N Lake Ave Pasadena,34.1598369,-118.1324926,91104,(626) 791-7412
Food 4 Less,0155 Saticoy St Winnetka,34.2083357,-118.5792618,91306,(818) 998-8074
Food 4 Less,2765 Van Nuys Blvd Pacoima,34.2617606,-118.4279843,91331,(818) 890-1151
Food 4 Less,635 Laurel Canyon Blvd Pacoima,34.2494635,-118.4222806,91331,(818) 897-3545
Food 4 Less,040 Glenoaks Blvd San Fernando,34.2877775,-118.4266176,91340,(818) 365-4577
Food 4 Less,6208 Parthenia St North Hills,34.2283288,-118.4739309,91343,(818) 830-0249
Food 4 Less,9200 Soledad Canyon Rd Canyon Country,34.4157804,-118.4637084,91351,(661) 250-7357
Food 4 Less,6530 Sherman Way Van Nuys,34.2011212,-118.4866369,91406,(818) 997-0170
Food 4 Less,000 Baldwin Park Blvd Baldwin Park,34.086499,-117.964773,91706,(626) 856-0511
Food 4 Less,024 Grand Ave Chino,33.9865019,-117.6280059,91710,(909) 902-0060
Food 4 Less,1950 Garvey Ave El Monte,34.0630314,-118.0171422,91732,(626) 442-7155
Food 4 Less,2879 Foothill Blvd Rancho Cucamonga,34.1063073,-117.5539514,91739,(909) 899-8388
Food 4 Less,801 N Hacienda Blvd La Puente,34.035308,-117.950232,91744,(626) 916-1120
Food 4 Less,246 S Euclid Ave Ontario,34.06208360961138,-117.65123145239485,91762,(909) 986-6673
Food 4 Less,090 S Garey Ave Pomona,34.0487762,-117.7497753,91766,(909) 902-0299
Food 4 Less,15 N Azusa Ave West Covina,34.0751744,-117.9076618,91791,(626) 967-5244
Food 4 Less,60 Palomar St Chula Vista,32.60954875946675,-117.05679570330446,91911,(619) 498-0327
Food 4 Less,420 Broadway Lemon Grove,32.7427195,-117.0349941,91945,(619) 463-4774
Food 4 Less,320 E 30th St National City,32.65782527925475,-117.09573962299373,91950,(620) 663-7651
Food 4 Less,44 Broadway El Cajon,32.8077675,-116.9356522,92021,(518) 426-0652
Food 4 Less,44 N Broadway Escondido,33.121801,-117.0815764,92025,(760) 737-8920
Food 4 Less,430 Cuyamaca St Santee,32.8361529,-116.9837113,92071,(619) 596-9076
Food 4 Less,00 Hacienda Dr Vista,33.1926155,-117.267347,92081,(760) 630-5333
Food 4 Less,730 Hazard Center Dr San Diego,32.7707928,-117.1563393,92108,(619) 683-7760
Food 4 Less,995 Shawline St San Diego,32.8318206,-117.1638997,92111,(858) 278-0681
Food 4 Less,12 Euclid Ave San Diego,32.704243,-117.085098,92114,(619) 266-3161
Food 4 Less,975 University Ave San Diego,32.7487934,-117.0791995,92115,(619) 287-6501
Food 4 Less,2124 Us Highway 111 Indio,33.7149046,-116.2091416,92201,(760) 863-4186
Food 4 Less,691 E 6th St Beaumont,33.929322934931626,-116.97415420205986,92223,(951) 845-3323
Food 4 Less,09 W Birch St Calexico,32.679168,-115.511714,92231,(760) 768-9766
Food 4 Less,4251 Date Palm Dr Cathedral City,33.7858429,-116.4580472,92234,(760) 770-3034
Food 4 Less,420 Cottonwood Dr El Centro,32.7714736,-115.5715909,92243,(760) 482-0530
Food 4 Less,7200 29 Palms Hwy Yucca Valley,34.1217484,-116.4197709,92284,(760) 365-9429
Food 4 Less,0801 Bear Valley Rd Apple Valley,34.471568,-117.1814819,92308,(760) 247-4990
Food 4 Less,80 E Virginia Way Barstow,34.8881513,-117.016388,92311,(760) 255-2233
Food 4 Less,150 N Pepper Ave Colton,34.06986985271638,-117.35289126880221,92324,(909) 370-1761
Food 4 Less,6991 Valley Blvd Fontana,34.0701527,-117.4975333,92335,(909) 823-1286
Food 4 Less,6529 Highland Ave Highland,34.135606571428575,-117.22352871428572,92346,(909) 425-8040
Food 4 Less,070 W Redlands Blvd Redlands,34.05739623371279,-117.18321546608937,92373,(909) 793-0722
Food 4 Less,410 W Foothill Blvd Rialto,34.106856661048596,-117.37729713952704,92376,(909) 873-9377
Food 4 Less,6266 Bear Valley Rd Victorville,34.4710863,-117.2632773,92395,(760) 951-1140
Food 4 Less,4738 La Paz Dr Victorville,34.7835346,-117.312823,92395,(760) 951-5600
Food 4 Less,55 A W 2nd St San Bernardino,34.1027167,-117.3106172,92401,(909) 888-5654
Food 4 Less,250 Van Buren Blvd Riverside,33.9145388,-117.4415868,92503,(909) 352-8353
Food 4 Less,900 Chicago Ave Riverside,33.9694758,-117.3485051,92507,(951) 369-9434
Food 4 Less,4440 Alessandro Blvd Moreno Valley,33.9171909,-117.2500518,92553,(951) 243-7571
Food 4 Less,2200 Perris Blvd Moreno Valley,33.9575194,-117.2265701,92557,(951) 247-0787
Food 4 Less,688 E North Perris Perris,33.7825194,-117.2286478,92571,(951) 943-5655
Food 4 Less,6419 Ynez Rd Temecula,33.5343339,-117.1629403,92591,(951) 296-5534
Food 4 Less,15 E 1st St Santa Ana,33.7455668,-117.863378,92701,(714) 972-1997
Food 4 Less,140 S Bristol St Santa Ana,33.7145457,-117.8853606,92704,(714) 545-6401
Food 4 Less,900 N Grand Ave Santa Ana,33.752849,-117.851956,92705,(714) 542-2361
Food 4 Less,21 N Beach Blvd Anaheim,33.8335194,-117.9935868,92801,(714) 952-5044
Food 4 Less,616 W Katella Ave Anaheim,33.80312955357143,-117.91686282142857,92802,(714) 539-7497
Food 4 Less,14 W Orangethorpe Ave Fullerton,33.8594307,-117.9299075,92832,(714) 773-0238
Food 4 Less,09 N Mckinley St Corona,33.8911489,-117.5216636,92879,(951) 278-8020
Food 4 Less,50 W Esplanade Dr Oxnard,34.2341707,-119.1791076,93036,(805) 983-2910
Food 4 Less,290 W Henderson Ave Porterville,36.080327994363,-119.02401538661394,93257,(559) 788-6290
Food 4 Less,025 N Dinuba Blvd Visalia,36.360769,-119.2969009,93291,(559) 733-0690
Food 4 Less,12 El Sereno Dr Bakersfield,35.343042,-119.017499,93304,(661) 835-5696
Food 4 Less,505 Haley St Bakersfield,35.3810121,-118.9796685,93305,(661) 873-2052
Food 4 Less,115 Union Ave Bakersfield,35.3520861,-119.0029353,93307,(661) 631-8020
Food 4 Less,400 Ming Ave Bakersfield,35.33953798989899,-119.00634865656565,93309,(661) 835-5696
Food 4 Less,985 S Higuera St San Luis Obispo,35.280909333333334,-120.66093133333332,93401,(805) 546-8169
Food 4 Less,360 El Camino Real Atascadero,35.521317,-120.703828,93422,(805) 461-9699
Food 4 Less,465 Creston Rd Paso Robles,35.62868112839398,-120.6793101656579,93446,(805) 239-8173
Food 4 Less,4455 Valley Central Way Lancaster,34.6929602,-118.1718757,93536,(661) 940-6373
Food 4 Less,341 E Avenue S Palmdale,34.5579986435315,-118.12562184536826,93550,(661) 266-9091
Food 4 Less,000 E Pacheco Blvd Los Banos,37.0563549,-120.8041395,93635,(209) 829-1300
Food 4 Less,360 W Cleveland Ave Madera,36.974403030578266,-120.07208589406947,93637,(559) 661-6190
Food 4 Less,819 Highland Ave Selma,36.575998,-119.6285797,93662,(559) 891-2361
Food 4 Less,921 N Chestnut Ave Fresno,36.8414153,-119.7388173,93720,(559) 322-2280
Food 4 Less,576 N Sanborn Rd Salinas,36.681803306688835,-121.6227528686589,93905,(831) 753-6630
Food 4 Less,184 Sonoma Blvd Vallejo,38.1467849,-122.2549064,94589,(707) 552-0956
Food 4 Less,78 N Wilson Way Stockton,37.956569208333335,-121.27165204166667,95205,(209) 466-2751
Food 4 Less,434 Manthey Rd Stockton,37.914637,-121.29086,95206,(209) 983-9660
Food 4 Less,55 E March Ln Stockton,37.996693725,-121.3051,95207,(209) 957-4920
Food 4 Less,89 W Hammer Ln Stockton,38.0211005,-121.3344858,95210,(209) 235-1310
Food 4 Less,014 Lower Sacramento Rd Stockton,38.049833,-121.315226,95210,(209) 957-4917
Food 4 Less,430 W Kettleman Ln Lodi,38.1154122,-121.3060244,95242,(209) 366-1053
Food 4 Less,840 Shaffer Rd Atwater,37.3613922,-120.5957853,95301,(209) 357-5320
Food 4 Less,561 Mitchell Rd Ceres,37.6104926,-120.9386793,95307,(209) 537-0200
Food 4 Less,31 Spreckels Ave Manteca,37.791582,-121.196711,95336,(209) 823-0806
Food 4 Less,115 W Olive Ave Merced,37.31866682124023,-120.4713133151355,95348,(209) 725-2150
Food 4 Less,44 Brighton Ave Modesto,37.657448,-120.9710681,95355,(209) 537-0200
Food 4 Less,225 N Tracy Blvd Tracy,37.7305741,-121.4346549,95376,(209) 820-2200
Food 4 Less,982 Sunrise Blvd Citrus Heights,38.6800329,-121.2716273,95610,(916) 723-2446
Food 4 Less,51 Pioneer Ave Woodland,38.68193353535354,-121.74671470707071,95776,(530) 669-3244
Food 4 Less,860 Florin Rd Sacramento,38.4959862,-121.467583,95823,(916) 427-4240
Food 4 Less,051 Dr Martin Luther King Junior Pkwy Chico,39.7218053,-121.8087973,95928,(530) 894-1050
Food 4 Less,330 Churn Creek Rd Redding,40.610866684328926,-122.34774714530063,96003,(530) 222-6740
Food 4 Less,4 Belle Mill Rd Red Bluff,40.18620804477612,-122.22140095522388,96080,(530) 529-7666
Food Express,71 Montgomery St Oroville,39.5159777,-121.5499215,95965,(530) 534-8392
Food Giant,065 Logan Ave San Diego,32.6971034,-117.1082152,92113,(619) 262-5051
Foodmax,950 Delta Fair Blvd Antioch,38.0025309,-121.8395636,94509,(925) 778-2701
Foodsco,850 W Lacey Blvd Hanford,36.327897322160226,-119.65671005472966,93230,(559) 585-2080
Foodsco,210 E Prosperity Ave Tulare,36.22559559219005,-119.34680535577581,93274,(559) 685-9731
Foodsco,637 S Mooney Blvd Visalia,36.3161608,-119.3138055,93277,(559) 739-1193
Foodsco,801 White Ln Bakersfield,35.31758798989899,-119.01096145454545,93304,(661) 836-4360
Foodsco,200 Rosedale Hwy Bakersfield,35.3833384,-119.0918515,93312,(661) 587-6265
Foodsco,01 W Central Ave Lompoc,34.661381,-120.510488,93436,(805) 740-9490
Foodsco,465 S Broadway Santa Maria,34.94929041836735,-120.4357424387755,93454,(805) 922-9815
Foodsco,838 E Kings Canyon Rd Fresno,36.7357926,-119.7195341,93727,(559) 456-9050
Foodsco,030 E Alisal St Salinas,36.67392826315789,-121.65351763157895,93905,(831) 424-0455
Foodsco,443 H Dela Rosa Sr St Soledad,36.4176278,-121.3206135,93960,(831) 678-1937
Foodsco,401 Broadway St Redwood City,37.4869681,-122.2186947,94063,(650) 366-5546
Foodsco,800 Folsom St San Francisco,37.781995,-122.401344,94103,(415) 558-9137
Foodsco,45 Williams Ave San Francisco,37.729424,-122.394344,94124,(415) 330-1870
Foodsco,250 Macdonald Ave Richmond,37.9357536,-122.3626747,94801,(510) 412-4444
Foodsco,330 Stockton Blvd Sacramento,38.5381077,-121.4489865,95820,(916) 451-0806
Foodsco,421 W Stockton Blvd Sacramento,38.455374,-121.41405,95823,(916) 688-3343
Foodsco,122 Gerber Rd Sacramento,38.4816273,-121.4086912,95828,(916) 689-5959
Foodtown,00 Eureka Sq Pacifica,37.63336545,-122.48854865967016,94044,(650) 355-3711
Foodtown,32 Montezuma Dr Pacifica,37.5908285,-122.4988975,94044,(650) 355-3711
Foodtown,049 Sacramento St Berkeley,37.8766337,-122.2825841,94702,(510) 981-1255
Frank's Mkt.,690 Workman St Los Angeles,34.0621125,-118.2140775,90031,(323) 223-7700
Frank's Mkt.,026 Maine Ave Baldwin Park,34.0966582,-117.9604995,91706,(626) 960-0884
Frank's Mkt.,049 E Main St Ventura,34.2644761,-119.2438099,93003,(805) 643-4259
Freeland Foods,245 Mora Dr Mountain View,37.4027975,-122.1014461,94040,(619) 286-0207
Freeland Foods,945 Mora Dr Mountain View,37.4027975,-122.1014461,94040,(619) 286-0207
Freeland Foods,235 Mora Dr Mountain View,37.4027975,-122.1014461,94040,(650) 962-9299
Fresh and Easy Neighborhood,700 Rosecrans Ave Manhattan Beach,33.901847,-118.407027,90266,(913) 441-6751
Fresh and Easy Neighborhood,33 E Foothill Blvd Arcadia,34.15106622222223,-118.03040733333333,91006,(626) 256-8800
Fresh and Easy Neighborhood,709 W Florida Ave Hemet,33.74743,-116.98016389897481,92545,(951) 765-1284
Fresh and Easy Neighborhood,5050 Alessandro Blvd Moreno Valley,33.9171909,-117.2500518,92553,(877) 932-7948
Fresh and Easy Neighborhood,6672 Beach Blvd Huntington Beach,33.7127805,-117.9889739,92647,(714) 596-7605
Fresh and Easy Neighborhood,49 Beck Ave Fairfield,38.2505529,-122.0662099,94533,(707) 422-4870
G & G Supermarket,01 Sonoma Mountain Pkwy Petaluma,38.2653024,-122.6343756,94954,(707) 765-1198
G & G Supermarket,211 W College Ave Santa Rosa,38.4458984295302,-122.73015857718121,95401,(707) 546-6877
Gruma Mission Foods,1359 Jersey Blvd Rancho Cucamonga,34.0946108,-117.5608327,91730,(909) 483-7815
Gruma Mission Foods,2316 World Trade Dr San Diego,32.983925,-117.073914,92128,(858) 451-5647
Gruma Mission Foods,7748 Caminito Balata San Diego,33.032818,-117.052238,92128,(858) 451-5647
Harvest Foods,040 Franklin Blvd Sacramento,38.5165644,-121.4693352,95820,(916) 455-4448
Healthway Natural Foods,35 E Bixby Rd Long Beach,33.8267216,-118.1859121,90807,(562) 424-9760
Holiday Quality Foods,6981 Placer Hills Rd Meadow Vista,38.9821684,-121.0268455,95722,(530) 878-1225
Holiday Quality Foods,017 Bridge St Colusa,39.210254,-122.00207,95932,(530) 458-5191
Holiday Quality Foods,1324 Pleasant Valley Rd Penn Valley,40.3997247,-79.6894917,95946,(530) 432-0110
Holiday Quality Foods,4001 Lakeridge Cir Magalia,39.816484,-121.589997,95954,(530) 873-4654
Holiday Quality Foods,848 Skyway Paradise,39.744167,-121.65058,95969,(530) 877-7621
Holiday Quality Foods,536 Westside Rd Redding,40.5495906,-122.3875002,96001,(530) 241-2054
Holiday Quality Foods,315 Placer St Redding,40.5822217,-122.3906794,96001,(530) 242-0477
Holiday Quality Foods,455 Hartnell Ave Redding,40.56380817291062,-122.36575669424721,96002,(530) 222-3335
Holiday Quality Foods,001 Eastside Rd Anderson,33.579486,-83.83215313408613,96007,(530) 245-4421
Holiday Quality Foods,71 Main Chester,40.298829,-121.23712498106977,96020,(530) 258-2122
Holiday Quality Foods,68 Main Chester,40.298829,-121.23712498106977,96020,(530) 258-2123
Holiday Quality Foods,0635 Gas Point Rd Cottonwood,40.3893325,-122.2856599,96022,(530) 347-3014
Holiday Quality Foods,0803 Front Cottonwood,46.04875247252747,-116.35585873626374,96022,(530) 347-4621
Holiday Quality Foods,350 Deschutes Rd Palo Cedro,40.5522851,-122.2383073,96073,(530) 547-4483
Holiday Quality Foods,16 Cedar St Red Bluff,40.177763,-122.241898,96080,(530) 527-1300
Holland Market,8563 Netherlands Rd Clarksburg,38.4162681,-121.5270081,95612,(916) 744-1510
Holland Market,2945 Netherlands Ave Clarksburg,38.4167051,-121.5275312,95612,(916) 744-1510
Hometown Foods,46 E St Chula Vista,32.64747774768055,-117.07122999438516,91910,(619) 427-4844
Hometown Foods,075 Federal Blvd San Diego,32.720525,-117.1024363,92102,(619) 527-3385
Horizon Foods,73 E San Carlos Ave San Carlos,33.35299863265306,-110.45237746938776,94070,(650) 595-3798
Huy Fong Foods Inc.,001 Earle Ave Rosemead,34.0607422,-118.0848333,91770,(626) 286-8328
Huy Fong Foods Inc.,35 El Monte St San Gabriel,34.0941713,-118.0951298,91776,(626) 286-8256
Island Pacific Supermarket,27 N Vermont Ave Los Angeles,34.0745218,-118.291681,90004,(323) 671-1020
Island Pacific Supermarket,1481 South St Cerritos,33.8586576,-118.0638354,90703,(562) 809-8863
Island Pacific Supermarket,340 Van Nuys Blvd Panorama City,34.2198503,-118.4488487,91402,(818) 895-2423
Island Pacific Supermarket,512 E Amar Rd West Covina,34.0267066,-117.9006716,91792,(626) 964-4858
Island Pacific Supermarket,122 Dyer St Union City,37.5897243,-122.0697886,94587,(510) 489-8189
Island Pacific Supermarket,110 Springs Rd Vallejo,38.10637557142857,-122.24626269387755,94591,(707) 552-6730
Island Pacific Supermarket,24 Springstowne Ctr Vallejo,38.105314449999995,-122.21630744119253,94591,(707) 642-2048
Island Pacific Supermarket,4 Springstowne Ctr Vallejo,38.105314449999995,-122.21630744119253,94591,(707) 642-2048
Jalisco Market,48 N Pacific Ave San Pedro,33.7538335,-118.2905839,90731,(914) 472-7550
Jalisco Market,01 S Sultana Ave Ontario,34.094178,-117.64629,91761,(909) 988-4045
Jalisco Market,619 International Blvd Oakland,37.7711162,-122.2120929,94601,(510) 535-1399
Jensens Finest Foods,8525 Highway 111 La Quinta,33.7074609,-116.2774465,92253,(760) 777-8181
Jensens Finest Foods,3601 Highway 111 Palm Desert,33.7257859,-116.4007646,92260,(760) 346-9393
Joseph Webb Foods,201 Park Center Dr Vista,33.1400209,-117.244643,92081,(760) 599-6200
Joseph Webb Foods,92 W Walnut Ave Fullerton,33.8679905,-117.9565625,92832,(714) 441-2979
Joy Bargain,914 Avalon Blvd Los Angeles,33.9659145,-118.2651454,90003,(323) 758-1289
Joy Bargain,364 S Vermont Ave Los Angeles,33.9977695,-118.2915385,90037,(323) 233-0720
Joyti Supermarket,7938 Baldwin St Hayward,37.6338581,-122.067967,94544,(510) 786-3633
Joyti Supermarket,150 W Winton Ave Hayward,37.66141412244898,-122.08887373469388,94545,(510) 786-3633
King Food,00 E Pico Blvd Los Angeles,34.0363027,-118.2603137,90015,(540) 943-8573
King Ranch Market,28 W Huntington Dr Monrovia,34.1403103,-118.0074037,91016,(626) 359-3333
King Ranch Market,75 E Orange Grove Blvd Pasadena,34.14489812244898,-118.16044512244898,91104,(626) 204-1992
King Ranch Market,50 W 9th St Azusa,34.1372586,-117.9153905,91702,(626) 969-1838
King Ranch Market,205 Baldwin Ave El Monte,34.0761188,-118.0536398,91731,(626) 618-1060
King Ranch Market,4827 7th St Victorville,34.4665231,-117.4508628,92395,(760) 843-7730
Kings Super Market,624 Fairgrounds Dr Ste A Vallejo,38.12918539727097,-122.22921540765996,94589,(707) 554-8801
Kings Super Market,00 El Camino Ave Sacramento,38.611173,-121.428115,95815,(916) 922-5866
Kings Super Market,0153 Live Oak Blvd Live Oak,39.2726064,-121.660441,95953,(530) 695-2197
Kroger,118 E Clinton Way Fresno,36.7721559,-119.725876,93727,(559) 252-7395
Leprino Foods,90 F St Lemoore,36.30451537535516,-119.78110512227708,93245,(559) 924-7723
Leprino Foods,10 Quandt Pl Lemoore,36.318136,-119.779131,93245,(559) 924-7939
Leprino Foods,51 Belle Haven Dr Lemoore,36.291403,-119.809372,93245,(559) 924-7939
Leprino Foods,401 N Macarthur Dr Tracy,37.754002,-121.414536,95376,(209) 835-8340
Leprino Foods,521 Lincoln Blvd Tracy,37.7473649,-121.4434186,95376,(209) 839-8166
Market Basket,845 Marysville Blvd Sacramento,38.6339722,-121.4304097,95838,(916) 920-0705
Metal Supermarkets,an Francisco,37.7851249,-122.4290715,94101,(866) 700-2839
Michoacam Supermarket,300 Middlefield Rd Menlo Park,37.456378,-122.167456,94025,(650) 368-9226
Michoacam Supermarket,380 Middlefield Rd Menlo Park,37.457276486297545,-122.16921614798126,94025,(650) 368-9226
Mission Foods,505 E Olympic Blvd Los Angeles,34.0189203,-118.1714645,90022,(323) 803-1400
Mission Foods,418 Carnelian St Rancho Cucamonga,34.131842,-117.616207,91730,(909) 476-2668
Mission Foods,1559 Jersey Blvd Rancho Cucamonga,34.0946108,-117.5608327,91730,(909) 980-3566
Mission Foods,142 Triumph Ln Ontario,34.071349,-117.5825682,91764,(909) 484-7969
Mission Foods,00 N Lemon St Anaheim,33.8403324,-117.9175877,92805,(714) 535-3178
Mission Foods,210 Wankel Way Oxnard,34.2167432,-119.149318,93030,(805) 278-2141
Mission Foods,351 Latigo Ave Oxnard,34.210969,-119.146473,93030,(805) 278-2141
Mission Foods,940 W Doe Ave Visalia,36.3460072,-119.372807,93291,(559) 651-8230
Mission Foods,149 Madison Ln Salinas,36.6939949,-121.6764483,93907,(831) 757-7627
Mission Foods,3415 Cabot Blvd Hayward,37.6394807,-122.1337446,94545,(510) 785-8740
Mission Foods,295 Ringwood Ave San Jose,37.3867809,-121.8921002,95131,(408) 526-1427
Mission Foods,10 E Trimble Rd San Jose,37.38596518918919,-121.9275894864865,95131,(408) 526-1427
Mission Foods,878 Industrial Dr Stockton,37.9092938250394,-121.26463680768325,95206,(209) 983-8222
Mission Foods,000 Commerce Way Turlock,37.48637,-120.8836123,95380,(209) 216-5975
Mission Foods,100 Commerce Way Turlock,37.48637,-120.8836123,95380,(209) 216-5975
Mojave Foods,200 E Slauson Ave Los Angeles,33.9864833,-118.1682085,90040,(323) 890-8900
Nijiya Market,130 Sawtelle Blvd Los Angeles,34.0453481,-118.4474519,90025,(914) 666-7990
Nijiya Market,121 W 182nd St Torrance,33.8655814,-118.3340218,90504,(208) 466-2643
Nijiya Market,180 W 190th St Torrance,33.8583151,-118.3368691,90504,(918) 274-3970
Nijiya Market,7869 Colima Rd Rowland Heights,33.9874586,-117.8886706,91748,(626) 913-9991
Nob Hill Foods,15 Aztec Cir Salinas,36.701675,-121.664717,93906,(831) 443-1372
Nob Hill Foods,52 Green Valley Rd Freedom,36.93442233467276,-121.77410137378017,95019,(831) 728-9555
North Bay Foods,et N Rohnert Park,38.3396367,-122.7010984,94926,(707) 794-7354
North Bay Foods,et N Petaluma,38.270022,-122.60612241304348,94975,(707) 782-0954
Northgate Markets,930 W Rosecrans Ave Hawthorne,33.9019118,-118.339626,90250,(919) 828-9216
Northgate Markets,1660 Firestone Blvd Norwalk,33.9093366,-118.0756393,90650,(562) 863-8203
Northgate Markets,101 Telegraph Rd Pico Rivera,33.9572758,-118.104622,90660,(562) 948-4626
Northgate Markets,120 Pacific Ave Long Beach,33.7923587,-118.1936731,90806,(562) 599-5075
Northgate Markets,828 Peck Rd El Monte,34.0794823,-118.0201668,91732,(626) 442-8200
Northgate Markets,346 S Mission Rd Fallbrook,33.37982546980921,-117.25350693374831,92028,(760) 723-4512
Northgate Markets,410 S 43rd St San Diego,32.70985224182189,-117.10235333688853,92113,(619) 266-6080
Northgate Markets,909 Coronado Ave San Diego,32.5764546,-117.0814758,92154,(619) 429-8212
Northgate Markets,09 E 4th St Santa Ana,33.7480366,-117.8591063,92701,(714) 647-9310
Northgate Markets,400 S Allec St Anaheim,33.8147592,-117.9000816,92805,(714) 563-0638
Nutricion Fundamental,930 Santa Monica Blvd Los Angeles,34.0907415,-118.3261708,90038,(323) 460-4899
Nutricion Fundamental,0633 Valley Blvd El Monte,34.0751552,-118.0354684,91731,(626) 442-1125
Nutricion Fundamental,6032 Amar Rd La Puente,34.0399005,-117.955658,91744,(626) 333-6855
Nutricion Fundamental,3720 Amar Rd La Puente,34.0482139,-117.9671263,91746,(626) 917-0201
One Stop Market,488 Madison St Riverside,33.934616,-117.403858,92504,(951) 687-7220
One Stop Market,4062 Springdale St Westminster,33.7595532,-118.0245806,92683,(714) 897-8146
P W Supermarkets,76 Pollard Rd Los Gatos,37.2624358,-121.9705168,95032,(408) 255-0045
P W Supermarkets,141 Montague Expy Milpitas,37.4094743,-121.8950474,95035,(408) 456-5034
P W Supermarkets,277 Alum Rock Ave San Jose,37.3553664,-121.8499833,95116,(408) 258-4977
P W Supermarkets,421 Foxworthy Ave San Jose,37.2778463,-121.8807124,95118,(408) 269-1201
P W Supermarkets,938 Almaden Expy San Jose,37.2041205,-121.8396927,95120,(408) 997-2202
P W Supermarkets,205 Prospect Rd San Jose,37.292593,-121.9985072,95129,(408) 255-0045
P W Supermarkets,710 Oakland Rd San Jose,37.3806697,-121.8952847,95131,(408) 573-7544
Pacific Supermarket,420 Southgate Ave Daly City,37.697416387083955,-122.48813067352195,94015,(650) 994-1688
Pacific Supermarket,015 El Camino Real South San Francisco,37.6556049,-122.4351489,94080,(650) 588-2691
Pacific Supermarket,573 Callan Blvd South San Francisco,37.6426578,-122.4620929,94080,(650) 827-1818
Pacific Supermarket,900 Alemany Blvd San Francisco,37.7125598,-122.4512657,94112,(415) 337-1628
Pak'n Save,255 Gellert Blvd South San Francisco,37.6456151,-122.4535703,94080,(650) 588-9007
Pak'n Save,55 Floresta Blvd San Leandro,37.7008333,-122.1446244,94578,(510) 483-2681
Pak'n Save,10 Hegenberger Rd Oakland,37.7368969,-122.1969378,94621,(510) 636-7970
Pak'n Save,187 S Main St Manteca,37.79588117647059,-121.21645347058823,95337,(209) 824-1144
Pak'n Save,291 Sanguinetti Rd Sonora,37.974075,-120.364652,95370,(209) 533-7816
Paradise Foods,627 Paradise Dr Corte Madera,37.9205009,-122.5099192,94925,(415) 945-8855
Paradise Foods,050 W Lincoln St Oroville,39.507528,-121.555467,95966,(530) 533-0941
Patel Brothers,039 El Camino Real Santa Clara,37.3531281,-121.9387477,95050,(408) 261-3555
Pavilions,467 W Olympic Blvd Beverly Hills,34.0593858,-118.393953,90212,(914) 472-7550
Pavilions,949 E Spring St Long Beach,33.8106043,-118.1159062,90808,(562) 496-2151
Pavilions,30 W Foothill Blvd Monrovia,34.150855666666665,-118.03331983333334,91016,(626) 358-7542
Pavilions,6101 Bob Hope Dr Rancho Mirage,33.7650405,-116.4080797,92270,(760) 324-4667
Pavilions,6022 Marguerite Pkwy Mission Viejo,33.6259724,-117.6516541,92692,(949) 582-0672
Price Less Foods,15 S Main St Yreka,41.716055,-122.640215,96097,(530) 842-7314
Pw Supermarkets,600 N Vasco Rd Livermore,37.7259555,-121.7242604,94551,(925) 243-0357
Pw Supermarkets,015 E Castro Valley Blvd Castro Valley,37.6942053,-122.0598123,94552,(510) 889-7575
Pw Supermarkets,0620 Homestead Rd Cupertino,37.3377358,-122.0091564,95014,(408) 255-2100
Pw Supermarkets,665 Foxworthy Ave San Jose,37.2676988,-121.917642,95124,(408) 266-0233
Raley's Supermarkets & Drug Centers,90 Southampton Rd Benicia,38.0653129,-122.1643997,94510,(707) 746-5565
Raley's Supermarkets & Drug Centers,400 Sand Creek Rd Brentwood,37.94624,-121.702842,94513,(925) 513-6699
Raley's Supermarkets & Drug Centers,001 Travis Blvd Fairfield,38.2582282,-122.0460951,94534,(707) 429-8410
Raley's Supermarkets & Drug Centers,9200 Paseo Padre Pkwy Fremont,37.5449088,-121.9649744,94538,(510) 791-0344
Raley's Supermarkets & Drug Centers,397 Jarvis Ave Newark,37.5535864,-122.0467969,94560,(510) 797-1227
Raley's Supermarkets & Drug Centers,077 Main St Oakley,37.9962183,-121.7082248,94561,(508) 588-3393
Raley's Supermarkets & Drug Centers,375 Buchanan Rd Pittsburg,37.998161256410256,-121.89233641025642,94565,(925) 432-1656
Raley's Supermarkets & Drug Centers,369 Buchanan Rd Pittsburg,37.998161641025646,-121.89235502564102,94565,(925) 432-1900
Raley's Supermarkets & Drug Centers,420 Sunol Blvd Pleasanton,37.6419251,-121.8818524,94566,(925) 846-7944
Raley's Supermarkets & Drug Centers,70 Sunset Ave Suisun City,38.2493438,-122.020542,94585,(707) 426-1023
Raley's Supermarkets & Drug Centers,360 San Pablo Dam Rd El Sobrante,37.9561614,-122.2776657,94803,(510) 222-5935
Raley's Supermarkets & Drug Centers,323 W Hammer Ln Stockton,38.0213591,-121.3466832,95209,(209) 955-1480
Raley's Supermarkets & Drug Centers,611 E Hatch Rd Modesto,37.6093168125,-120.9859891875,95351,(209) 537-1770
Raley's Supermarkets & Drug Centers,401 E Orangeburg Ave Modesto,37.663702,-120.988042,95355,(209) 577-5656
Raley's Supermarkets & Drug Centers,900 Geer Rd Turlock,37.502318,-120.848752,95382,(209) 667-5253
Raley's Supermarkets & Drug Centers,407 Fulton Rd Santa Rosa,38.42932268686869,-122.7695063939394,95403,(707) 546-3435
Raley's Supermarkets & Drug Centers,315 N State St Ukiah,39.15140268882417,-123.20814982316563,95482,(707) 468-5178
Raley's Supermarkets & Drug Centers,0603 Old Redwood Hwy Windsor,38.52778748180415,-122.78216907532153,95492,(707) 838-6604
Raley's Supermarkets & Drug Centers,159 Fair Oaks Blvd Carmichael,38.628759,-121.328263,95608,(916) 483-0419
Raley's Supermarkets & Drug Centers,870 Madison Ave Fair Oaks,38.663896,-121.2572873,95628,(916) 966-2201
Raley's Supermarkets & Drug Centers,915 Douglas Blvd Roseville,38.74400993398725,-121.28036585708789,95661,(916) 781-7845
Raley's Supermarkets & Drug Centers,66 Placerville Dr Placerville,38.72429523645316,-120.83452603765984,95667,(530) 622-6800
Raley's Supermarkets & Drug Centers,063 Alamo Dr Vacaville,38.357761737373735,-122.01088845454545,95687,(707) 446-8707
Raley's Supermarkets & Drug Centers,845 Douglas Blvd Granite Bay,38.7440693,-121.1878796,95746,(916) 791-8000
Raley's Supermarkets & Drug Centers,051 Woodcreek Oaks Blvd Roseville,38.762948,-121.3310971,95747,(916) 771-0880
Raley's Supermarkets & Drug Centers,850 Freeport Blvd Sacramento,38.5045617,-121.5052469,95822,(916) 452-3811
Raley's Supermarkets & Drug Centers,00 W Onstott Rd Yuba City,39.161434,-121.6356829,95991,(530) 673-8880
Raley's Supermarkets & Drug Centers,25 S Main St Red Bluff,40.17165846938776,-122.23002173469388,96080,(530) 527-6902
Ralphs Grocery Co.,233 N La Brea Ave Los Angeles,34.072995500000005,-118.34404041381109,90038,(323) 876-8790
Ralphs Grocery Co.,644 Cloverfield Blvd Santa Monica,34.03076701337638,-118.47663588451584,90404,(914) 937-0996
Ralphs Grocery Co.,909 Rolling Hills Rd Torrance,34.9796572,-106.1140938,90505,(910) 458-5410
Ralphs Grocery Co.,200 N Central Ave Glendale,32.63983497781911,-86.03549294394152,91202,(818) 246-1752
Ralphs Grocery Co.,4049 Ventura Blvd Sherman Oaks,34.1484473,-118.4337716,91423,(818) 784-3005
Ralphs Grocery Co.,100 N San Fernando Blvd Burbank,34.1916549,-118.3255719,91504,(818) 842-0326
Ralphs Grocery Co.,55 S Grand Ave Glendora,34.1242224,-117.872736,91740,(626) 857-9439
Ralphs Grocery Co.,230 S Atlantic Blvd Monterey Park,34.06045237877665,-118.1335178833246,91754,(323) 721-3367
Ralphs Grocery Co.,440 Mira Mesa Blvd San Diego,32.9103154,-117.156293,92126,(858) 536-9745
Ralphs Grocery Co.,331 University Dr Irvine,33.6581918,-117.8183241,92612,(949) 786-0770
Ralphs Grocery Co.,3321 Jamboree Rd Tustin,33.7206753,-117.7939127,92782,(714) 544-0491
Ralphs Grocery Co.,776 S Victoria Ave Ventura,34.2405918,-119.2163791,93003,(805) 650-0466
Ralphs Grocery Co.,500 Post St El Dorado Hills,38.6493083,-121.0671844,95762,(916) 934-0181
Rosco Supermarket,259 Sepulveda Pl Panorama City,34.219676,-118.4662197,91402,(818) 893-5700
Safeway,321 E Madison Ave Fresno,36.7495396,-119.7454319,93702,(559) 268-1652
Safeway,516 Constitution Blvd Salinas,36.6996651,-121.6178195,93905,(831) 444-3625
Safeway,7539 Vierra Canyon Rd Salinas,36.802919,-121.624183,93907,(831) 663-6704
Safeway, Carmel Center Pl Carmel,36.5381517,-121.9078349,93923,(831) 625-8820
Safeway,15 Canyon Del Rey Blvd Monterey,36.607906,-121.856041,93940,(831) 393-2090
Safeway,100 Ralston Ave Belmont,37.5137377,-122.2887036,94002,(650) 591-6918
Safeway,100 El Camino Real Belmont,37.529066,-122.2873768,94002,(650) 596-1730
Safeway,450 Howard Ave Burlingame,37.58332639861899,-122.33712364648963,94010,(650) 344-3092
Safeway,5 Westlake Ctr Daly City,37.7063084,-122.4688905,94015,(650) 755-0576
Safeway,60 1st St Los Altos,37.38063333779206,-122.1200436529955,94022,(650) 941-1208
Safeway,25 El Camino Real Menlo Park,37.4537421,-122.1834328,94025,(650) 847-2905
Safeway,25 Sharon Park Dr Menlo Park,37.4242172,-122.1983588,94025,(650) 854-3056
Safeway,85 W El Camino Real Mountain View,37.3880577,-122.0887579,94040,(408) 481-3302
Safeway,750 Miramonte Ave Mountain View,37.387475,-122.0882471,94040,(650) 903-5850
Safeway,580 California St Mountain View,37.3989267,-122.0998223,94040,(650) 949-3324
Safeway,70 N Shoreline Blvd Mountain View,37.4030088,-122.0781671,94043,(650) 961-4851
Safeway,50 Woodside Rd Redwood City,37.4761404,-122.2217688,94061,(650) 365-2522
Safeway,071 El Camino Real Redwood City,29.83592665,-97.93402298987522,94063,(650) 306-1900
Safeway,70 El Camino Real South San Francisco,37.6556049,-122.4351489,94080,(650) 589-4579
Safeway,0 Chestnut Ave South San Francisco,37.6612186,-122.4295502,94080,(650) 952-8867
Safeway,33 S Wolfe Rd Sunnyvale,37.3701136,-122.013838,94086,(408) 739-8131
Safeway,85 E El Camino Real Sunnyvale,37.3673202,-122.0315503,94087,(408) 481-3300
Safeway,62 Sunnyvale Saratoga Rd Sunnyvale,37.3643104,-122.0328755,94087,(408) 720-0244
Safeway,39 S Bernardo Ave Sunnyvale,37.359413,-122.0595753,94087,(408) 732-5900
Safeway,601 Hollenbeck Ave Sunnyvale,37.369914,-122.041072,94087,(408) 733-8251
Safeway,300 16th St San Francisco,37.7646255,-122.4287107,94103,(415) 575-1130
Safeway,98 King St San Francisco,37.77892581318682,-122.39040922527472,94107,(415) 633-1001
Safeway,020 Market St San Francisco,37.7617587,-122.4382956,94114,(415) 861-7660
Safeway,30 Taraval St San Francisco,37.74376529411765,-122.4644622352941,94116,(415) 665-4136
Safeway,2 Plaza St San Francisco,37.74900185,-122.45998954574185,94116,(650) 359-2751
Safeway,50 La Playa St San Francisco,37.7621528,-122.5092904,94121,(415) 387-4664
Safeway,350 Noriega St San Francisco,37.7542426,-122.476506,94122,(415) 665-4565
Safeway,5 Marina Blvd San Francisco,37.80509873469388,-122.43229102040816,94123,(415) 563-8681
Safeway,25 Monterey Blvd San Francisco,37.73145149546523,-122.4369558703395,94127,(415) 586-2421
Safeway,290 Diamond Heights Blvd San Francisco,37.7465895,-122.443522,94131,(415) 824-7744
Safeway,50 Bay St San Francisco,37.80655525,-122.4067415,94133,(415) 781-4374
Safeway,811 Middlefield Rd Palo Alto,37.4242693,-122.1148654,94306,(650) 321-9731
Safeway,655 S El Camino Real San Mateo,37.5562563,-122.3184323,94402,(650) 341-0374
Safeway,00 De Anza Blvd San Mateo,37.522646,-122.3332183,94402,(650) 341-4039
Safeway,227 S Shore Ctr Alameda,37.7596511,-122.257747,94501,(510) 863-9000
Safeway,03 W American Canyon Rd American Canyon,38.16656534053725,-122.26662207158955,94503,(707) 649-5150
Safeway,496 Camino Tassajara Danville,37.8096716,-121.9532499,94506,(925) 736-0298
Safeway,00 Alamo Plz Alamo,37.85114055,-122.03480214232104,94507,(925) 820-8022
Safeway,110 Balfour Rd Brentwood,37.9254653,-121.7103304,94513,(925) 626-6020
Safeway,125 2nd St Brentwood,37.9354083,-121.6955674,94513,(925) 634-6780
Safeway,431 Clayton Rd Clayton,37.9360099,-121.9242665,94517,(925) 672-2107
Safeway,309 Clayton Rd Concord,37.9628156,-121.9873509,94521,(925) 356-2710
Safeway,978 Contra Costa Blvd Pleasant Hill,37.9433211,-122.0603545,94523,(925) 688-0680
Safeway,00 Patterson Blvd Pleasant Hill,37.9384239,-122.0702339,94523,(925) 933-8243
Safeway,0636 San Pablo Ave El Cerrito,37.9126648,-122.3096153,94530,(510) 525-9055
Safeway,365 Deer Valley Rd Antioch,37.9848444,-121.7853664,94531,(925) 706-4150
Safeway,401 Waterman Blvd Fairfield,38.273395,-122.0521972,94534,(707) 427-5640
Safeway,9100 Argonaut Way Fremont,37.5428758,-121.9858897,94538,(510) 794-1666
Safeway,6848 Mission Blvd Fremont,37.4958626,-121.9228518,94539,(510) 497-1003
Safeway,2280 Foothill Blvd Hayward,37.6819806,-122.0877659,94541,(510) 582-0700
Safeway,31 W Jackson St Hayward,37.65534797959184,-122.08839104081632,94544,(510) 783-8611
Safeway,0629 Redwood Rd Castro Valley,37.7059976,-122.0740309,94546,(510) 538-0268
Safeway,540 Mt Diablo Blvd Lafayette,37.8915546,-122.1227599,94549,(925) 284-1550
Safeway,495 1st St Livermore,42.86837218367347,-94.18050578571427,94551,(925) 455-2522
Safeway,334 Alhambra Ave Martinez,37.9833603,-122.118692,94553,(925) 229-0212
Safeway,688 Alhambra Ave Martinez,38.016478405678285,-122.13836739566662,94553,(925) 933-0540
Safeway,355 Moraga Way Moraga,37.8340212,-122.1275199,94556,(925) 376-9491
Safeway,375 Jefferson St Napa,38.290898530829246,-122.294379641786,94558,(707) 225-3040
Safeway,620 Clay St Napa,38.3035138,-122.2783458,94559,(707) 252-0170
Safeway, Camino Sobrante Orinda,37.8835728,-122.1920916,94563,(925) 254-8792
Safeway,421 Tara Hills Dr Pinole,37.9953683,-122.3023851,94564,(510) 724-1525
Safeway,60 Bailey Rd Pittsburg,38.016585,-121.9420156,94565,(925) 458-0181
Safeway,440 Tassajara Rd Dublin,37.7042248,-121.8719496,94568,(925) 551-4710
Safeway,05 Parker Ave Rodeo,38.0275505,-122.2657261,94572,(510) 799-6200
Safeway,55 Bancroft Ave San Leandro,37.7216121,-122.1454575,94577,(510) 632-2949
Safeway,99 Lewelling Blvd San Leandro,37.6866969,-122.136432,94579,(510) 483-2225
Safeway,1060 Bollinger Canyon Rd San Ramon,37.7665425,-121.9050761,94582,(925) 359-2001
Safeway,505 San Ramon Valley Blvd San Ramon,37.7583721,-121.9675018,94583,(925) 831-9515
Safeway,790 Decoto Rd Union City,37.59655267609063,-122.01808813808704,94587,(510) 429-9090
Safeway,918 Stoneridge Mall Rd Pleasanton,37.6929891,-121.9238264,94588,(925) 467-3000
Safeway,09 Lincoln Rd W Vallejo,38.07798111681087,-122.23329072946125,94590,(707) 643-2172
Safeway,01 Iris Ct Vallejo,38.089708,-122.201769,94591,(707) 554-3409
Safeway,22 Robles Way Vallejo,38.0834602,-122.2101333,94591,(707) 554-4467
Safeway,74 Admiral Callaghan Ln Vallejo,38.11142824984104,-122.22883097515819,94591,(707) 554-8035
Safeway,00 S Broadway Walnut Creek,37.8964009,-122.0567012,94596,(925) 935-9205
Safeway,800 Ygnacio Valley Rd Walnut Creek,37.9341366,-122.0015338,94598,(925) 944-4000
Safeway,550 Fruitvale Ave Oakland,37.771048426338645,-122.22870837628648,94602,(510) 530-7067
Safeway,747 Grand Ave Oakland,37.80996494553595,-122.24919748544148,94610,(510) 465-4187
Safeway,096 Mountain Blvd Oakland,37.831384,-122.2131226,94611,(510) 482-2266
Safeway,130 Broadway Oakland,37.8365848,-122.251118,94611,(510) 658-5693
Safeway,310 College Ave Oakland,37.8445516,-122.2517959,94618,(510) 654-6992
Safeway,100 Redwood Rd Oakland,37.7989115,-122.1708406,94619,(510) 531-0565
Safeway,444 Shattuck Ave Berkeley,37.8765138,-122.2688365,94709,(510) 526-3086
Safeway,925 Macdonald Ave Richmond,37.9323069,-122.3234857,94805,(510) 237-2719
Safeway,00 B St San Rafael,37.974684,-122.5292723,94901,(415) 456-1453
Safeway,00 Las Gallinas Ave San Rafael,38.0063203,-122.5444299,94903,(415) 479-6111
Safeway,37 Corte Madera Town Ctr Corte Madera,37.9257907,-122.5175625,94925,(415) 927-1960
Safeway,340 Commerce Blvd Rohnert Park,38.3485318,-122.7096034,94928,(707) 584-8942
Safeway, Camino Alto Mill Valley,37.8981281,-122.5298111,94941,(415) 388-2701
Safeway,00 Diablo Ave Novato,38.1033062,-122.5730297,94947,(415) 898-1503
Safeway,70 Ignacio Blvd Novato,38.0663754,-122.5427388,94949,(415) 883-5665
Safeway,73 S Mcdowell Blvd Petaluma,38.236897,-122.6039222,94954,(707) 762-1479
Safeway,38 Sir Francis Drake Blvd San Anselmo,37.9770794,-122.5624354,94960,(415) 456-9157
Safeway,010 Freedom Blvd Freedom,36.9368018,-121.7755241,95019,(831) 728-2640
Safeway,05 1st St Gilroy,37.0134763,-121.5982883,95020,(408) 842-6446
Safeway,91 Tres Pinos Rd Hollister,36.8394071,-121.3946837,95023,(831) 638-3247
Safeway,70 N Santa Cruz Ave Los Gatos,37.22413941666667,-121.98302100000001,95030,(408) 395-1708
Safeway,500 Pollard Rd Los Gatos,37.2624358,-121.9705168,95032,(408) 374-2050
Safeway,5549 Union Ave Los Gatos,37.2402348,-121.9311883,95032,(408) 559-5750
Safeway,51 E Calaveras Blvd Milpitas,37.43130872368421,-121.90098619736843,95035,(408) 262-9850
Safeway,605 The Alameda Santa Clara,37.3469446,-121.9379106,95050,(408) 244-6873
Safeway,760 Homestead Rd Santa Clara,37.3378528,-121.9860538,95051,(408) 248-0563
Safeway,970 Rivermark Plz Santa Clara,37.394265,-121.9456776,95054,(408) 855-0980
Safeway,111 Mission St Santa Cruz,36.97664705,-122.02821961262634,95060,(831) 429-6078
Safeway,24 Encinal St Santa Cruz,36.9867427,-122.0334138,95060,(831) 477-7212
Safeway,17 Morrissey Blvd Santa Cruz,36.9814068,-122.0069576,95062,(831) 426-7489
Safeway,2876 Saratoga Sunnyvale Rd Saratoga,37.2809556,-122.0324474,95070,(408) 867-0180
Safeway,720 41st Ave Soquel,36.9865671,-121.9648895,95073,(831) 477-7212
Safeway,050 Almaden Expy San Jose,37.2569587,-121.8761216,95118,(408) 267-1200
Safeway,950 Almaden Expy San Jose,37.2569587,-121.8761216,95118,(408) 267-1200
Safeway,477 Almaden Expy San Jose,37.2041205,-121.8396927,95120,(408) 268-3511
Safeway,771 E Capitol Expy San Jose,37.3118585,-121.8081199,95121,(408) 238-9800
Safeway,530 Hamilton Ave San Jose,37.2936694,-121.9084407,95125,(408) 264-1523
Safeway,306 Almaden Rd San Jose,37.2952995,-121.8807034,95125,(408) 266-6308
Safeway,305 S Winchester Blvd San Jose,37.32297676923077,-121.95022284615384,95128,(408) 374-2954
Safeway,395 S Winchester Blvd San Jose,37.32121315270372,-121.950264,95128,(408) 374-2954
Safeway,150 Bollinger Rd San Jose,37.3096175,-121.9965849,95129,(408) 257-3070
Safeway,146 Stevens Creek Blvd San Jose,37.323118,-121.9412015,95129,(408) 556-0614
Safeway,600 Saratoga Ave San Jose,37.301063,-121.9816092,95129,(408) 865-0345
Safeway,558 Berryessa Rd San Jose,37.3923344,-121.8507198,95132,(408) 272-2287
Safeway,79 Branham Ln San Jose,37.2654979,-121.866697,95136,(408) 227-4961
Safeway,808 Country Club Blvd Stockton,37.9698468,-121.3135682,95204,(209) 461-5560
Safeway,445 Pacific Ave Stockton,38.0000922,-121.3162746,95207,(209) 472-8600
Safeway,449 W Kettleman Ln Lodi,38.1154122,-121.3060244,95242,(209) 367-7875
Safeway,001 Mchenry Ave Modesto,37.670401,-120.994009,95350,(209) 571-6280
Safeway,801 W 11th St Tracy,37.73979249498328,-121.4395455284281,95376,(209) 830-2950
Safeway,6900 W Schulte Rd Tracy,37.721811,-121.513098,95377,(800) 388-2125
Safeway,051 Countryside Dr Turlock,37.5152891,-120.8780053,95380,(209) 669-2780
Safeway,799 Marlow Rd Santa Rosa,38.4541241,-122.7512846,95401,(707) 528-3062
Safeway,300 Mendocino Ave Santa Rosa,38.440605,-122.713988,95403,(707) 569-3100
Safeway,785 Yulupa Ave Santa Rosa,38.446768216096146,-122.67727568154908,95405,(707) 524-4646
Safeway,00 Calistoga Rd Santa Rosa,38.5148213,-122.6549988,95409,(707) 539-2129
Safeway,60 S Main St Fort Bragg,39.4337936,-123.8061569,95437,(707) 964-4058
Safeway,6405 River Rd Guerneville,38.5019903,-122.9996824,95446,(707) 869-0613
Safeway,115 Vine St Healdsburg,38.6084322,-122.8703206,95448,(707) 431-7102
Safeway,06 N Main St Sebastopol,38.4068638,-122.827198,95472,(707) 823-1037
Safeway,77 W Napa St Sonoma,38.29189613223423,-122.45820696482318,95476,(707) 996-0633
Safeway,53 S State St Ukiah,39.1073185,-123.1955657,95482,(707) 467-2700
Safeway,45 S Main St Willits,39.4012402,-123.3497298,95490,(707) 456-1790
Safeway,080 Brooks Rd S Windsor,38.5486384,-122.8071544,95492,(707) 837-2002
Safeway,30 W Harris St Eureka,40.780383,-124.17074252040817,95503,(707) 442-7597
Safeway,520 Harris St Eureka,40.78031706122449,-124.16273522448981,95503,(707) 443-8650
Safeway,503 City Center Rd Mckinleyville,40.9431194,-124.1027215,95519,(707) 840-9770
Safeway,00 F St Arcata,40.8733437,-124.0829615,95521,(707) 822-5217
Safeway,75 M St Crescent City,41.7552541,-124.1940274,95531,(707) 465-3353
Safeway,01 S Fortuna Blvd Fortuna,40.5846346,-124.1468786,95540,(707) 725-5104
Safeway,431 W Covell Blvd Davis,38.56070533293267,-121.75288155888806,95616,(530) 757-4540
Safeway,121 Cowell Blvd Davis,38.5474079,-121.7055836,95618,(530) 792-8500
Safeway,235 Stratford Ave Dixon,38.45609631126347,-121.82373328261434,95620,(707) 678-7400
Safeway,301 Greenback Ln Citrus Heights,38.6782991,-121.3014,95621,(916) 727-2458
Safeway,450 Dewey Dr Fair Oaks,38.650459,-121.3084855,95628,(916) 904-5356
Safeway,850 Prairie City Rd Folsom,38.64847,-121.1617128,95630,(916) 608-2450
Safeway,89 Sunrise Ave Roseville,38.7295795,-121.2720218,95661,(916) 773-4001
Safeway,908 Robin Brook Way Roseville,38.7582488,-121.2353706,95661,(916) 783-1426
Safeway,640 Sierra College Blvd Roseville,38.747199,-121.2263811,95661,(916) 783-2225
Safeway,0635 Folsom Blvd Rancho Cordova,38.590632,-121.29979,95670,(916) 364-4940
Safeway,080 Pleasant Grove Blvd Roseville,38.7855408,-121.2849059,95678,(916) 783-2119
Safeway,28 Vernon St Roseville,38.75168170731707,-121.28155124390244,95678,(916) 783-2128
Safeway,090 Harbison Dr Vacaville,38.363072,-121.964606,95687,(707) 452-7279
Safeway,045 Woodcreek Oaks Blvd Roseville,38.762948,-121.3310971,95747,(916) 780-9919
Safeway,021 Laguna Blvd Elk Grove,38.4233097,-121.4454759,95758,(916) 691-3770
Safeway,2074 Francisco Dr El Dorado Hills,38.7267889,-121.090391,95762,(916) 939-9456
Safeway,207 Francisco Dr El Dorado Hills,38.7267889,-121.090391,95762,(916) 939-9463
Safeway,220 Sunset Blvd Rocklin,38.81731484471542,-121.29802444758815,95765,(916) 789-0807
Safeway,814 19th St Sacramento,38.5749468,-121.4821499,95814,(916) 492-9967
Safeway,025 Alhambra Blvd Sacramento,38.5710993,-121.465935,95816,(916) 456-0852
Safeway,320 Arden Way Sacramento,38.5965462,-121.4208289,95825,(916) 483-9389
Safeway,24 Howe Ave Sacramento,38.579705,-121.4154645,95825,(916) 925-1676
Safeway,377 Elk Grove Florin Rd Sacramento,38.4828379,-121.3718259,95829,(916) 681-8666
Safeway,851 Del Paso Rd Sacramento,38.6558979,-121.534887,95835,(916) 285-8840
Safeway,345 Elkhorn Blvd Sacramento,38.6831311,-121.3369519,95842,(916) 331-2987
Safeway,20 Mangrove Ave Chico,39.7344367,-121.8357213,95926,(530) 895-6300
Safeway,366 East Ave Chico,39.759467368421056,-121.85693489473685,95926,(530) 899-2320
Safeway,05 Neal St Grass Valley,39.2167137,-121.0623096,95945,(530) 273-0115
Safeway,67 Sutton Way Grass Valley,39.229628,-121.0344062,95945,(530) 273-2249
Safeway,020 Clark Rd Paradise,39.744714,-121.607648,95969,(530) 877-7001
Safeway,0 E Main St Quincy,39.9369474,-120.9408625,95971,(530) 283-1404
Safeway,275 Pine St Redding,40.579155,-122.3872333,96001,(530) 247-3030
Safeway,070 E Cypress Ave Redding,40.5709755,-122.3625719,96002,(530) 226-5871
Safeway,601 Balls Ferry Rd Anderson,40.4530315,-122.2705466,96007,(530) 365-1010
Safeway,00 Edith Ave Corning,39.944341,-122.197541,96021,(530) 824-2467
Safeway,970 Main St Susanville,40.417784714285716,-120.65885185714286,96130,(530) 257-2029
Safeway,815 N Lake Blvd Kings Beach,39.2370045,-120.0249801,96143,(530) 546-0170
Safeway,50 N Lake Blvd Tahoe City,39.1876638,-120.1187879,96145,(530) 583-2772
Safeway,020 Johnson Blvd South Lake Tahoe,38.9451253,-119.9664577,96150,(530) 542-7744
Safeway,1290 Donner Pass Rd Truckee,39.3287079,-120.1821047,96161,(530) 582-7950
Sam's Club,6468 Carl Boyer Dr Santa Clarita,34.4154977,-118.5053586,91350,(661) 222-7408
Sam's Club,6555 Von Karman Ave Irvine,33.684248,-117.8474584,92606,(949) 553-9466
Sam's Club,625 Gosford Rd Bakersfield,35.2965091,-119.0922309,93313,(661) 654-8565
Sam's Club,663 N Blackstone Ave Fresno,36.8070635,-119.7903909,93720,(559) 446-0106
Sam's Club,04 Pleasant Grove Blvd Roseville,38.7855408,-121.2849059,95678,(916) 781-8160
